{"type": "FeatureCollection", "features": [{"type": "Feature", "geometry": {"type": "Point", "coordinates": [-121.049, 38.675]}, "properties": {"city": "El Dorado Hills", "population": 45104.0, "density": 359.0}}, {"type": "Feature", "geometry": {"type": "Point", "coordinates": [-119.0312, 36.379]}, "properties": {"city": "Lemon Cove", "population": 232.0, "density": 107.0}}, {"type": "Feature", "geometry": {"type": "Point", "coordinates": [-122.956, 38.2436]}, "properties": {"city": "Dillon Beach", "population": 156.0, "density": 20.0}}, {"type": "Feature", "geometry": {"type": "Point", "coordinates": [-119.2956, 36.3795]}, "properties": {"city": "Patterson Tract", "population": 2320.0, "density": 619.0}}, {"type": "Feature", "geometry": {"type": "Point", "coordinates": [-123.9474, 40.3987]}, "properties": {"city": "Redcrest", "population": 36.0, "density": 23.0}}, {"type": "Feature", "geometry": {"type": "Point", "coordinates": [-120.0803, 36.964]}, "properties": {"city": "Madera", "population": 83636.0, "density": 1602.0}}, {"type": "Feature", "geometry": {"type": "Point", "coordinates": [-123.3963, 39.4429]}, "properties": {"city": "Brooktrails", "population": 3705.0, "density": 196.0}}, {"type": "Feature", "geometry": {"type": "Point", "coordinates": [-122.9034, 38.7173]}, "properties": {"city": "Geyserville", "population": 929.0, "density": 79.0}}, {"type": "Feature", "geometry": {"type": "Point", "coordinates": [-120.7759, 37.4306]}, "properties": {"city": "Delhi", "population": 11622.0, "density": 1278.0}}, {"type": "Feature", "geometry": {"type": "Point", "coordinates": [-117.9935, 33.8002]}, "properties": {"city": "Stanton", "population": 38528.0, "density": 4802.0}}, {"type": "Feature", "geometry": {"type": "Point", "coordinates": [-122.723, 38.8356]}, "properties": {"city": "Cobb", "population": 984.0, "density": 76.0}}, {"type": "Feature", "geometry": {"type": "Point", "coordinates": [-120.8232, 38.419]}, "properties": {"city": "Amador City", "population": 190.0, "density": 236.0}}, {"type": "Feature", "geometry": {"type": "Point", "coordinates": [-122.2359, 38.1133]}, "properties": {"city": "Vallejo", "population": 173844.0, "density": 1536.0}}, {"type": "Feature", "geometry": {"type": "Point", "coordinates": [-122.0118, 37.0555]}, "properties": {"city": "Scotts Valley", "population": 11945.0, "density": 998.0}}, {"type": "Feature", "geometry": {"type": "Point", "coordinates": [-119.6374, 37.4797]}, "properties": {"city": "Fish Camp", "population": 83.0, "density": 35.0}}, {"type": "Feature", "geometry": {"type": "Point", "coordinates": [-116.7585, 32.8439]}, "properties": {"city": "Alpine", "population": 14795.0, "density": 213.0}}, {"type": "Feature", "geometry": {"type": "Point", "coordinates": [-117.8911, 33.9716]}, "properties": {"city": "Rowland Heights", "population": 50572.0, "density": 1493.0}}, {"type": "Feature", "geometry": {"type": "Point", "coordinates": [-120.8033, 39.2138]}, "properties": {"city": "Alta", "population": 476.0, "density": 77.0}}, {"type": "Feature", "geometry": {"type": "Point", "coordinates": [-121.106, 39.3718]}, "properties": {"city": "North San Juan", "population": 297.0, "density": 47.0}}, {"type": "Feature", "geometry": {"type": "Point", "coordinates": [-118.4047, 35.6411]}, "properties": {"city": "Mountain Mesa", "population": 808.0, "density": 359.0}}, {"type": "Feature", "geometry": {"type": "Point", "coordinates": [-119.2013, 35.4794]}, "properties": {"city": "Shafter", "population": 20889.0, "density": 195.0}}, {"type": "Feature", "geometry": {"type": "Point", "coordinates": [-115.7306, 33.3548]}, "properties": {"city": "Bombay Beach", "population": 341.0, "density": 139.0}}, {"type": "Feature", "geometry": {"type": "Point", "coordinates": [-122.595, 37.9884]}, "properties": {"city": "Fairfax", "population": 7598.0, "density": 1331.0}}, {"type": "Feature", "geometry": {"type": "Point", "coordinates": [-121.9375, 40.8005]}, "properties": {"city": "Round Mountain", "population": 98.0, "density": 22.0}}, {"type": "Feature", "geometry": {"type": "Point", "coordinates": [-118.0026, 34.0381]}, "properties": {"city": "Avocado Heights", "population": 16213.0, "density": 2313.0}}, {"type": "Feature", "geometry": {"type": "Point", "coordinates": [-121.9741, 38.8926]}, "properties": {"city": "Dunnigan", "population": 1299.0, "density": 95.0}}, {"type": "Feature", "geometry": {"type": "Point", "coordinates": [-119.0612, 36.1438]}, "properties": {"city": "Strathmore", "population": 3617.0, "density": 993.0}}, {"type": "Feature", "geometry": {"type": "Point", "coordinates": [-118.3444, 33.9566]}, "properties": {"city": "Inglewood", "population": 110598.0, "density": 4709.0}}, {"type": "Feature", "geometry": {"type": "Point", "coordinates": [-117.6607, 35.368]}, "properties": {"city": "Randsburg", "population": 143.0, "density": 28.0}}, {"type": "Feature", "geometry": {"type": "Point", "coordinates": [-116.9056, 32.8033]}, "properties": {"city": "Granite Hills", "population": 2873.0, "density": 397.0}}, {"type": "Feature", "geometry": {"type": "Point", "coordinates": [-122.3669, 37.586]}, "properties": {"city": "Burlingame", "population": 30686.0, "density": 2689.0}}, {"type": "Feature", "geometry": {"type": "Point", "coordinates": [-120.9525, 40.0059]}, "properties": {"city": "Keddie", "population": 42.0, "density": 24.0}}, {"type": "Feature", "geometry": {"type": "Point", "coordinates": [-121.2933, 38.1218]}, "properties": {"city": "Lodi", "population": 72890.0, "density": 1860.0}}, {"type": "Feature", "geometry": {"type": "Point", "coordinates": [-119.1452, 34.2819]}, "properties": {"city": "Saticoy", "population": 1005.0, "density": 1034.0}}, {"type": "Feature", "geometry": {"type": "Point", "coordinates": [-120.379, 38.1939]}, "properties": {"city": "Avery", "population": 575.0, "density": 49.0}}, {"type": "Feature", "geometry": {"type": "Point", "coordinates": [-121.6465, 36.6247]}, "properties": {"city": "Spreckels", "population": 562.0, "density": 1776.0}}, {"type": "Feature", "geometry": {"type": "Point", "coordinates": [-118.0311, 33.9336]}, "properties": {"city": "South Whittier", "population": 60000.0, "density": 4340.0}}, {"type": "Feature", "geometry": {"type": "Point", "coordinates": [-117.6659, 35.0164]}, "properties": {"city": "Boron", "population": 2406.0, "density": 67.0}}, {"type": "Feature", "geometry": {"type": "Point", "coordinates": [-116.9694, 33.9797]}, "properties": {"city": "Cherry Valley", "population": 7924.0, "density": 381.0}}, {"type": "Feature", "geometry": {"type": "Point", "coordinates": [-121.8921, 37.434]}, "properties": {"city": "Milpitas", "population": 78106.0, "density": 2208.0}}, {"type": "Feature", "geometry": {"type": "Point", "coordinates": [-117.4624, 33.8724]}, "properties": {"city": "El Sobrante", "population": 14451.0, "density": 772.0}}, {"type": "Feature", "geometry": {"type": "Point", "coordinates": [-119.1459, 36.294]}, "properties": {"city": "Exeter", "population": 10553.0, "density": 1654.0}}, {"type": "Feature", "geometry": {"type": "Point", "coordinates": [-116.6873, 33.9356]}, "properties": {"city": "Whitewater", "population": 989.0, "density": 38.0}}, {"type": "Feature", "geometry": {"type": "Point", "coordinates": [-117.8213, 35.6546]}, "properties": {"city": "Inyokern", "population": 731.0, "density": 25.0}}, {"type": "Feature", "geometry": {"type": "Point", "coordinates": [-121.3542, 39.4261]}, "properties": {"city": "Rackerby", "population": 176.0, "density": 23.0}}, {"type": "Feature", "geometry": {"type": "Point", "coordinates": [-121.8101, 36.8722]}, "properties": {"city": "Pajaro Dunes", "population": 319.0, "density": 48.0}}, {"type": "Feature", "geometry": {"type": "Point", "coordinates": [-120.9494, 41.1964]}, "properties": {"city": "Adin", "population": 206.0, "density": 23.0}}, {"type": "Feature", "geometry": {"type": "Point", "coordinates": [-120.8702, 35.7309]}, "properties": {"city": "Lake Nacimiento", "population": 2806.0, "density": 104.0}}, {"type": "Feature", "geometry": {"type": "Point", "coordinates": [-121.6624, 39.2788]}, "properties": {"city": "Live Oak", "population": 8935.0, "density": 1085.0}}, {"type": "Feature", "geometry": {"type": "Point", "coordinates": [-122.8409, 41.6086]}, "properties": {"city": "Fort Jones", "population": 692.0, "density": 443.0}}, {"type": "Feature", "geometry": {"type": "Point", "coordinates": [-121.2523, 38.574]}, "properties": {"city": "Rancho Cordova", "population": 73563.0, "density": 811.0}}, {"type": "Feature", "geometry": {"type": "Point", "coordinates": [-122.519, 38.112]}, "properties": {"city": "Black Point-Green Point", "population": 1544.0, "density": 210.0}}, {"type": "Feature", "geometry": {"type": "Point", "coordinates": [-118.3972, 33.8895]}, "properties": {"city": "Manhattan Beach", "population": 35924.0, "density": 3522.0}}, {"type": "Feature", "geometry": {"type": "Point", "coordinates": [-119.6286, 34.4382]}, "properties": {"city": "Montecito", "population": 8984.0, "density": 371.0}}, {"type": "Feature", "geometry": {"type": "Point", "coordinates": [-118.0291, 34.0739]}, "properties": {"city": "El Monte", "population": 116109.0, "density": 4688.0}}, {"type": "Feature", "geometry": {"type": "Point", "coordinates": [-116.9479, 32.8189]}, "properties": {"city": "Bostonia", "population": 17600.0, "density": 3525.0}}, {"type": "Feature", "geometry": {"type": "Point", "coordinates": [-122.2363, 40.5511]}, "properties": {"city": "Palo Cedro", "population": 1253.0, "density": 131.0}}, {"type": "Feature", "geometry": {"type": "Point", "coordinates": [-122.2955, 37.5154]}, "properties": {"city": "Belmont", "population": 27140.0, "density": 2261.0}}, {"type": "Feature", "geometry": {"type": "Point", "coordinates": [-121.7055, 38.8672]}, "properties": {"city": "Robbins", "population": 329.0, "density": 48.0}}, {"type": "Feature", "geometry": {"type": "Point", "coordinates": [-122.6384, 38.0052]}, "properties": {"city": "Woodacre", "population": 1574.0, "density": 338.0}}, {"type": "Feature", "geometry": {"type": "Point", "coordinates": [-118.6039, 35.8379]}, "properties": {"city": "Sugarloaf Mountain Park", "population": 0.0, "density": 0.0}}, {"type": "Feature", "geometry": {"type": "Point", "coordinates": [-118.2362, 33.9199]}, "properties": {"city": "Willowbrook", "population": 22654.0, "density": 5655.0}}, {"type": "Feature", "geometry": {"type": "Point", "coordinates": [-121.2832, 38.5489]}, "properties": {"city": "Mather", "population": 4201.0, "density": 161.0}}, {"type": "Feature", "geometry": {"type": "Point", "coordinates": [-120.5451, 35.0809]}, "properties": {"city": "Los Berros", "population": 483.0, "density": 74.0}}, {"type": "Feature", "geometry": {"type": "Point", "coordinates": [-121.1846, 38.0365]}, "properties": {"city": "Waterloo", "population": 750.0, "density": 53.0}}, {"type": "Feature", "geometry": {"type": "Point", "coordinates": [-120.5759, 35.048]}, "properties": {"city": "Callender", "population": 1679.0, "density": 283.0}}, {"type": "Feature", "geometry": {"type": "Point", "coordinates": [-123.072, 38.3743]}, "properties": {"city": "Carmet", "population": 0.0, "density": 0.0}}, {"type": "Feature", "geometry": {"type": "Point", "coordinates": [-119.7723, 37.1886]}, "properties": {"city": "Yosemite Lakes", "population": 5274.0, "density": 97.0}}, {"type": "Feature", "geometry": {"type": "Point", "coordinates": [-120.5354, 38.4532]}, "properties": {"city": "Buckhorn", "population": 2281.0, "density": 150.0}}, {"type": "Feature", "geometry": {"type": "Point", "coordinates": [-118.8233, 35.2273]}, "properties": {"city": "Edmundson Acres", "population": 414.0, "density": 2403.0}}, {"type": "Feature", "geometry": {"type": "Point", "coordinates": [-122.526, 41.6406]}, "properties": {"city": "Grenada", "population": 471.0, "density": 352.0}}, {"type": "Feature", "geometry": {"type": "Point", "coordinates": [-117.6981, 34.0714]}, "properties": {"city": "Montclair", "population": 39276.0, "density": 2749.0}}, {"type": "Feature", "geometry": {"type": "Point", "coordinates": [-120.0653, 37.8127]}, "properties": {"city": "Buck Meadows", "population": 51.0, "density": 11.0}}, {"type": "Feature", "geometry": {"type": "Point", "coordinates": [-121.8988, 39.0742]}, "properties": {"city": "Grimes", "population": 271.0, "density": 46.0}}, {"type": "Feature", "geometry": {"type": "Point", "coordinates": [-123.1299, 40.561]}, "properties": {"city": "Hayfork", "population": 2641.0, "density": 14.0}}, {"type": "Feature", "geometry": {"type": "Point", "coordinates": [-116.2346, 33.7346]}, "properties": {"city": "Indio", "population": 408097.0, "density": 1043.0}}, {"type": "Feature", "geometry": {"type": "Point", "coordinates": [-120.6297, 39.574]}, "properties": {"city": "Sierra City", "population": 165.0, "density": 29.0}}, {"type": "Feature", "geometry": {"type": "Point", "coordinates": [-120.4405, 34.6861]}, "properties": {"city": "Mission Hills", "population": 4014.0, "density": 1282.0}}, {"type": "Feature", "geometry": {"type": "Point", "coordinates": [-119.4106, 35.2087]}, "properties": {"city": "Valley Acres", "population": 430.0, "density": 40.0}}, {"type": "Feature", "geometry": {"type": "Point", "coordinates": [-118.1108, 34.0155]}, "properties": {"city": "Montebello", "population": 63192.0, "density": 2928.0}}, {"type": "Feature", "geometry": {"type": "Point", "coordinates": [-121.3675, 41.8898]}, "properties": {"city": "Newell", "population": 307.0, "density": 49.0}}, {"type": "Feature", "geometry": {"type": "Point", "coordinates": [-120.0218, 36.9462]}, "properties": {"city": "Parksdale", "population": 3029.0, "density": 645.0}}, {"type": "Feature", "geometry": {"type": "Point", "coordinates": [-122.866, 38.4376]}, "properties": {"city": "Graton", "population": 1827.0, "density": 446.0}}, {"type": "Feature", "geometry": {"type": "Point", "coordinates": [-120.7248, 37.3875]}, "properties": {"city": "Livingston", "population": 14140.0, "density": 1485.0}}, {"type": "Feature", "geometry": {"type": "Point", "coordinates": [-119.4824, 36.4526]}, "properties": {"city": "Traver", "population": 834.0, "density": 381.0}}, {"type": "Feature", "geometry": {"type": "Point", "coordinates": [-120.0145, 39.393]}, "properties": {"city": "Floriston", "population": 34.0, "density": 13.0}}, {"type": "Feature", "geometry": {"type": "Point", "coordinates": [-122.5302, 41.7275]}, "properties": {"city": "Montague", "population": 1406.0, "density": 305.0}}, {"type": "Feature", "geometry": {"type": "Point", "coordinates": [-118.5424, 37.4189]}, "properties": {"city": "Mesa", "population": 288.0, "density": 31.0}}, {"type": "Feature", "geometry": {"type": "Point", "coordinates": [-122.0523, 37.1101]}, "properties": {"city": "Lompico", "population": 899.0, "density": 102.0}}, {"type": "Feature", "geometry": {"type": "Point", "coordinates": [-117.1198, 33.2236]}, "properties": {"city": "Hidden Meadows", "population": 3382.0, "density": 198.0}}, {"type": "Feature", "geometry": {"type": "Point", "coordinates": [-120.1147, 36.8799]}, "properties": {"city": "La Vina", "population": 288.0, "density": 1104.0}}, {"type": "Feature", "geometry": {"type": "Point", "coordinates": [-119.0897, 36.2082]}, "properties": {"city": "Lindsay", "population": 16515.0, "density": 1879.0}}, {"type": "Feature", "geometry": {"type": "Point", "coordinates": [-119.5668, 37.328]}, "properties": {"city": "Bass Lake", "population": 571.0, "density": 117.0}}, {"type": "Feature", "geometry": {"type": "Point", "coordinates": [-117.0542, 33.9874]}, "properties": {"city": "Calimesa", "population": 8817.0, "density": 229.0}}, {"type": "Feature", "geometry": {"type": "Point", "coordinates": [-116.3545, 33.815]}, "properties": {"city": "Thousand Palms", "population": 7356.0, "density": 120.0}}, {"type": "Feature", "geometry": {"type": "Point", "coordinates": [-121.0028, 37.6374]}, "properties": {"city": "Modesto", "population": 381398.0, "density": 1924.0}}, {"type": "Feature", "geometry": {"type": "Point", "coordinates": [-118.0888, 33.9902]}, "properties": {"city": "Pico Rivera", "population": 63522.0, "density": 2956.0}}, {"type": "Feature", "geometry": {"type": "Point", "coordinates": [-118.1956, 33.8949]}, "properties": {"city": "East Rancho Dominguez", "population": 16027.0, "density": 7527.0}}, {"type": "Feature", "geometry": {"type": "Point", "coordinates": [-119.4054, 35.0517]}, "properties": {"city": "Maricopa", "population": 1197.0, "density": 307.0}}, {"type": "Feature", "geometry": {"type": "Point", "coordinates": [-121.2127, 38.413]}, "properties": {"city": "Wilton", "population": 5097.0, "density": 67.0}}, {"type": "Feature", "geometry": {"type": "Point", "coordinates": [-116.002, 32.7431]}, "properties": {"city": "Ocotillo", "population": 114.0, "density": 4.0}}, {"type": "Feature", "geometry": {"type": "Point", "coordinates": [-124.0063, 41.5322]}, "properties": {"city": "Klamath", "population": 722.0, "density": 22.0}}, {"type": "Feature", "geometry": {"type": "Point", "coordinates": [-117.9135, 33.6667]}, "properties": {"city": "Costa Mesa", "population": 113825.0, "density": 2782.0}}, {"type": "Feature", "geometry": {"type": "Point", "coordinates": [-120.609, 35.1019]}, "properties": {"city": "Oceano", "population": 7788.0, "density": 1963.0}}, {"type": "Feature", "geometry": {"type": "Point", "coordinates": [-121.3202, 39.4857]}, "properties": {"city": "Robinson Mill", "population": 19.0, "density": 5.0}}, {"type": "Feature", "geometry": {"type": "Point", "coordinates": [-122.0096, 39.2049]}, "properties": {"city": "Colusa", "population": 6781.0, "density": 1255.0}}, {"type": "Feature", "geometry": {"type": "Point", "coordinates": [-117.2851, 33.7254]}, "properties": {"city": "Meadowbrook", "population": 2656.0, "density": 152.0}}, {"type": "Feature", "geometry": {"type": "Point", "coordinates": [-122.5505, 38.8003]}, "properties": {"city": "Hidden Valley Lake", "population": 5735.0, "density": 226.0}}, {"type": "Feature", "geometry": {"type": "Point", "coordinates": [-119.845, 36.5399]}, "properties": {"city": "Caruthers", "population": 2984.0, "density": 569.0}}, {"type": "Feature", "geometry": {"type": "Point", "coordinates": [-116.6068, 32.6131]}, "properties": {"city": "Potrero", "population": 465.0, "density": 57.0}}, {"type": "Feature", "geometry": {"type": "Point", "coordinates": [-119.6916, 36.4338]}, "properties": {"city": "Laton", "population": 1921.0, "density": 382.0}}, {"type": "Feature", "geometry": {"type": "Point", "coordinates": [-124.0661, 41.7937]}, "properties": {"city": "Hiouchi", "population": 427.0, "density": 284.0}}, {"type": "Feature", "geometry": {"type": "Point", "coordinates": [-118.9143, 35.3023]}, "properties": {"city": "Fuller Acres", "population": 872.0, "density": 446.0}}, {"type": "Feature", "geometry": {"type": "Point", "coordinates": [-121.2318, 38.2913]}, "properties": {"city": "Herald", "population": 1125.0, "density": 55.0}}, {"type": "Feature", "geometry": {"type": "Point", "coordinates": [-116.8747, 36.4277]}, "properties": {"city": "Furnace Creek", "population": 139.0, "density": 1.0}}, {"type": "Feature", "geometry": {"type": "Point", "coordinates": [-116.9021, 34.4427]}, "properties": {"city": "Lucerne Valley", "population": 5472.0, "density": 20.0}}, {"type": "Feature", "geometry": {"type": "Point", "coordinates": [-120.6306, 38.4456]}, "properties": {"city": "Volcano", "population": 35.0, "density": 9.0}}, {"type": "Feature", "geometry": {"type": "Point", "coordinates": [-122.365, 40.5698]}, "properties": {"city": "Redding", "population": 120270.0, "density": 594.0}}, {"type": "Feature", "geometry": {"type": "Point", "coordinates": [-122.0016, 37.9722]}, "properties": {"city": "Concord", "population": 654770.0, "density": 1639.0}}, {"type": "Feature", "geometry": {"type": "Point", "coordinates": [-121.0343, 37.618]}, "properties": {"city": "West Modesto", "population": 5786.0, "density": 1566.0}}, {"type": "Feature", "geometry": {"type": "Point", "coordinates": [-118.5024, 35.1512]}, "properties": {"city": "Golden Hills", "population": 8889.0, "density": 280.0}}, {"type": "Feature", "geometry": {"type": "Point", "coordinates": [-118.0625, 33.933]}, "properties": {"city": "Santa Fe Springs", "population": 17980.0, "density": 782.0}}, {"type": "Feature", "geometry": {"type": "Point", "coordinates": [-119.5472, 35.178]}, "properties": {"city": "Fellows", "population": 57.0, "density": 31.0}}, {"type": "Feature", "geometry": {"type": "Point", "coordinates": [-122.8899, 38.4825]}, "properties": {"city": "Forestville", "population": 3658.0, "density": 268.0}}, {"type": "Feature", "geometry": {"type": "Point", "coordinates": [-122.0981, 40.027]}, "properties": {"city": "Los Molinos", "population": 1928.0, "density": 342.0}}, {"type": "Feature", "geometry": {"type": "Point", "coordinates": [-116.8991, 33.9461]}, "properties": {"city": "Banning", "population": 31230.0, "density": 518.0}}, {"type": "Feature", "geometry": {"type": "Point", "coordinates": [-121.4683, 38.5667]}, "properties": {"city": "Sacramento", "population": 1854698.0, "density": 1980.0}}, {"type": "Feature", "geometry": {"type": "Point", "coordinates": [-118.2133, 36.8275]}, "properties": {"city": "Independence", "population": 607.0, "density": 48.0}}, {"type": "Feature", "geometry": {"type": "Point", "coordinates": [-117.2684, 34.4988]}, "properties": {"city": "Spring Valley Lake", "population": 7356.0, "density": 936.0}}, {"type": "Feature", "geometry": {"type": "Point", "coordinates": [-122.9148, 38.3246]}, "properties": {"city": "Valley Ford", "population": 198.0, "density": 28.0}}, {"type": "Feature", "geometry": {"type": "Point", "coordinates": [-120.6645, 39.7982]}, "properties": {"city": "Plumas Eureka", "population": 303.0, "density": 29.0}}, {"type": "Feature", "geometry": {"type": "Point", "coordinates": [-120.1344, 36.4042]}, "properties": {"city": "Westside", "population": 234.0, "density": 40.0}}, {"type": "Feature", "geometry": {"type": "Point", "coordinates": [-121.3408, 37.9687]}, "properties": {"city": "Country Club", "population": 9914.0, "density": 1996.0}}, {"type": "Feature", "geometry": {"type": "Point", "coordinates": [-120.9189, 39.9165]}, "properties": {"city": "East Quincy", "population": 2494.0, "density": 79.0}}, {"type": "Feature", "geometry": {"type": "Point", "coordinates": [-116.9197, 32.7624]}, "properties": {"city": "Rancho San Diego", "population": 21651.0, "density": 961.0}}, {"type": "Feature", "geometry": {"type": "Point", "coordinates": [-122.8225, 40.6969]}, "properties": {"city": "Lewiston", "population": 1368.0, "density": 26.0}}, {"type": "Feature", "geometry": {"type": "Point", "coordinates": [-119.8893, 36.9596]}, "properties": {"city": "Bonadelle Ranchos-Madera Ranchos", "population": 8647.0, "density": 286.0}}, {"type": "Feature", "geometry": {"type": "Point", "coordinates": [-119.2783, 35.929]}, "properties": {"city": "Teviston", "population": 1135.0, "density": 201.0}}, {"type": "Feature", "geometry": {"type": "Point", "coordinates": [-122.6914, 38.018]}, "properties": {"city": "Lagunitas-Forest Knolls", "population": 1790.0, "density": 162.0}}, {"type": "Feature", "geometry": {"type": "Point", "coordinates": [-122.1467, 37.3913]}, "properties": {"city": "Palo Alto", "population": 67178.0, "density": 1086.0}}, {"type": "Feature", "geometry": {"type": "Point", "coordinates": [-117.8755, 35.8188]}, "properties": {"city": "Pearsonville", "population": 24.0, "density": 2.0}}, {"type": "Feature", "geometry": {"type": "Point", "coordinates": [-117.0296, 32.6652]}, "properties": {"city": "Bonita", "population": 13082.0, "density": 1007.0}}, {"type": "Feature", "geometry": {"type": "Point", "coordinates": [-121.0091, 37.7432]}, "properties": {"city": "Del Rio", "population": 1078.0, "density": 199.0}}, {"type": "Feature", "geometry": {"type": "Point", "coordinates": [-121.9698, 37.8121]}, "properties": {"city": "Danville", "population": 44786.0, "density": 956.0}}, {"type": "Feature", "geometry": {"type": "Point", "coordinates": [-116.9687, 32.764]}, "properties": {"city": "Casa de Oro-Mount Helix", "population": 20196.0, "density": 1138.0}}, {"type": "Feature", "geometry": {"type": "Point", "coordinates": [-123.0154, 38.7962]}, "properties": {"city": "Cloverdale", "population": 9362.0, "density": 1119.0}}, {"type": "Feature", "geometry": {"type": "Point", "coordinates": [-116.2785, 33.6536]}, "properties": {"city": "La Quinta", "population": 41304.0, "density": 452.0}}, {"type": "Feature", "geometry": {"type": "Point", "coordinates": [-122.7298, 38.4178]}, "properties": {"city": "Roseland", "population": 5717.0, "density": 3748.7}}, {"type": "Feature", "geometry": {"type": "Point", "coordinates": [-116.7903, 34.2536]}, "properties": {"city": "Big Bear City", "population": 13186.0, "density": 159.0}}, {"type": "Feature", "geometry": {"type": "Point", "coordinates": [-120.4443, 37.8703]}, "properties": {"city": "Chinese Camp", "population": 218.0, "density": 93.0}}, {"type": "Feature", "geometry": {"type": "Point", "coordinates": [-120.7906, 39.3591]}, "properties": {"city": "Washington", "population": 78.0, "density": 15.0}}, {"type": "Feature", "geometry": {"type": "Point", "coordinates": [-116.9915, 33.797]}, "properties": {"city": "San Jacinto", "population": 48254.0, "density": 724.0}}, {"type": "Feature", "geometry": {"type": "Point", "coordinates": [-122.3635, 41.4467]}, "properties": {"city": "Carrick", "population": 77.0, "density": 505.0}}, {"type": "Feature", "geometry": {"type": "Point", "coordinates": [-121.0304, 39.0029]}, "properties": {"city": "Meadow Vista", "population": 3448.0, "density": 252.0}}, {"type": "Feature", "geometry": {"type": "Point", "coordinates": [-119.8051, 36.7989]}, "properties": {"city": "Old Fig Garden", "population": 5522.0, "density": 1278.0}}, {"type": "Feature", "geometry": {"type": "Point", "coordinates": [-120.5033, 41.2254]}, "properties": {"city": "Likely", "population": 0.0, "density": 0.0}}, {"type": "Feature", "geometry": {"type": "Point", "coordinates": [-118.6166, 35.8343]}, "properties": {"city": "Sugarloaf Saw Mill", "population": 0.0, "density": 0.0}}, {"type": "Feature", "geometry": {"type": "Point", "coordinates": [-121.0425, 37.6028]}, "properties": {"city": "Riverdale Park", "population": 1067.0, "density": 283.0}}, {"type": "Feature", "geometry": {"type": "Point", "coordinates": [-121.4753, 41.9533]}, "properties": {"city": "Tulelake", "population": 994.0, "density": 936.0}}, {"type": "Feature", "geometry": {"type": "Point", "coordinates": [-117.6235, 33.5838]}, "properties": {"city": "Las Flores", "population": 5665.0, "density": 985.0}}, {"type": "Feature", "geometry": {"type": "Point", "coordinates": [-120.0199, 36.8006]}, "properties": {"city": "Biola", "population": 1390.0, "density": 1010.0}}, {"type": "Feature", "geometry": {"type": "Point", "coordinates": [-120.6291, 35.2102]}, "properties": {"city": "Los Ranchos", "population": 1658.0, "density": 226.0}}, {"type": "Feature", "geometry": {"type": "Point", "coordinates": [-122.3122, 37.5522]}, "properties": {"city": "San Mateo", "population": 104748.0, "density": 3322.0}}, {"type": "Feature", "geometry": {"type": "Point", "coordinates": [-121.7608, 37.6861]}, "properties": {"city": "Livermore", "population": 91030.0, "density": 1290.0}}, {"type": "Feature", "geometry": {"type": "Point", "coordinates": [-121.2699, 37.4006]}, "properties": {"city": "Diablo Grande", "population": 885.0, "density": 66.0}}, {"type": "Feature", "geometry": {"type": "Point", "coordinates": [-116.7257, 33.7443]}, "properties": {"city": "Idyllwild-Pine Cove", "population": 2590.0, "density": 72.0}}, {"type": "Feature", "geometry": {"type": "Point", "coordinates": [-116.5627, 34.0724]}, "properties": {"city": "Morongo Valley", "population": 3231.0, "density": 49.0}}, {"type": "Feature", "geometry": {"type": "Point", "coordinates": [-121.4249, 38.231]}, "properties": {"city": "Thornton", "population": 934.0, "density": 169.0}}, {"type": "Feature", "geometry": {"type": "Point", "coordinates": [-117.1225, 32.8312]}, "properties": {"city": "San Diego", "population": 3210314.0, "density": 1683.0}}, {"type": "Feature", "geometry": {"type": "Point", "coordinates": [-116.2874, 33.7435]}, "properties": {"city": "Bermuda Dunes", "population": 7243.0, "density": 949.0}}, {"type": "Feature", "geometry": {"type": "Point", "coordinates": [-120.6277, 37.9365]}, "properties": {"city": "Copperopolis", "population": 4214.0, "density": 78.0}}, {"type": "Feature", "geometry": {"type": "Point", "coordinates": [-118.2353, 34.2323]}, "properties": {"city": "La Crescenta-Montrose", "population": 19658.0, "density": 2214.0}}, {"type": "Feature", "geometry": {"type": "Point", "coordinates": [-121.1498, 36.1757]}, "properties": {"city": "Pine Canyon", "population": 1995.0, "density": 230.0}}, {"type": "Feature", "geometry": {"type": "Point", "coordinates": [-122.1106, 37.1058]}, "properties": {"city": "Brookdale", "population": 2490.0, "density": 249.0}}, {"type": "Feature", "geometry": {"type": "Point", "coordinates": [-118.1681, 33.8029]}, "properties": {"city": "Signal Hill", "population": 11622.0, "density": 2048.0}}, {"type": "Feature", "geometry": {"type": "Point", "coordinates": [-121.5361, 39.9064]}, "properties": {"city": "Stirling City", "population": 201.0, "density": 65.0}}, {"type": "Feature", "geometry": {"type": "Point", "coordinates": [-121.4038, 39.3204]}, "properties": {"city": "Loma Rica", "population": 3111.0, "density": 64.0}}, {"type": "Feature", "geometry": {"type": "Point", "coordinates": [-122.5382, 37.8793]}, "properties": {"city": "Tamalpais-Homestead Valley", "population": 10853.0, "density": 894.0}}, {"type": "Feature", "geometry": {"type": "Point", "coordinates": [-120.3789, 37.2965]}, "properties": {"city": "Tuttle", "population": 63.0, "density": 13.0}}, {"type": "Feature", "geometry": {"type": "Point", "coordinates": [-119.8516, 36.7055]}, "properties": {"city": "West Park", "population": 755.0, "density": 162.0}}, {"type": "Feature", "geometry": {"type": "Point", "coordinates": [-121.8805, 37.6663]}, "properties": {"city": "Pleasanton", "population": 83007.0, "density": 1327.0}}, {"type": "Feature", "geometry": {"type": "Point", "coordinates": [-117.2777, 33.8888]}, "properties": {"city": "March ARB", "population": 1065.0, "density": 34.0}}, {"type": "Feature", "geometry": {"type": "Point", "coordinates": [-124.1303, 41.1592]}, "properties": {"city": "Big Lagoon", "population": 113.0, "density": 72.0}}, {"type": "Feature", "geometry": {"type": "Point", "coordinates": [-117.3482, 34.1548]}, "properties": {"city": "Muscoy", "population": 12968.0, "density": 1584.0}}, {"type": "Feature", "geometry": {"type": "Point", "coordinates": [-117.9112, 34.0555]}, "properties": {"city": "West Covina", "population": 107598.0, "density": 2589.0}}, {"type": "Feature", "geometry": {"type": "Point", "coordinates": [-118.1271, 33.888]}, "properties": {"city": "Bellflower", "population": 77772.0, "density": 4907.0}}, {"type": "Feature", "geometry": {"type": "Point", "coordinates": [-119.3892, 35.8499]}, "properties": {"city": "Allensworth", "population": 513.0, "density": 63.0}}, {"type": "Feature", "geometry": {"type": "Point", "coordinates": [-121.4573, 38.5172]}, "properties": {"city": "Lemon Hill", "population": 14182.0, "density": 3348.0}}, {"type": "Feature", "geometry": {"type": "Point", "coordinates": [-124.1526, 41.8663]}, "properties": {"city": "Fort Dick", "population": 588.0, "density": 70.0}}, {"type": "Feature", "geometry": {"type": "Point", "coordinates": [-117.5666, 34.1248]}, "properties": {"city": "Rancho Cucamonga", "population": 177452.0, "density": 1707.0}}, {"type": "Feature", "geometry": {"type": "Point", "coordinates": [-121.8808, 36.9608]}, "properties": {"city": "Rio del Mar", "population": 9621.0, "density": 1238.0}}, {"type": "Feature", "geometry": {"type": "Point", "coordinates": [-118.7608, 34.151]}, "properties": {"city": "Agoura Hills", "population": 20692.0, "density": 1024.0}}, {"type": "Feature", "geometry": {"type": "Point", "coordinates": [-122.4682, 38.5063]}, "properties": {"city": "St. Helena", "population": 7168.0, "density": 482.0}}, {"type": "Feature", "geometry": {"type": "Point", "coordinates": [-121.9208, 41.9643]}, "properties": {"city": "Dorris", "population": 907.0, "density": 498.0}}, {"type": "Feature", "geometry": {"type": "Point", "coordinates": [-117.1078, 34.8861]}, "properties": {"city": "Lenwood", "population": 4255.0, "density": 789.0}}, {"type": "Feature", "geometry": {"type": "Point", "coordinates": [-123.7948, 40.1003]}, "properties": {"city": "Garberville", "population": 979.0, "density": 141.0}}, {"type": "Feature", "geometry": {"type": "Point", "coordinates": [-121.323, 38.6337]}, "properties": {"city": "Carmichael", "population": 65091.0, "density": 1868.0}}, {"type": "Feature", "geometry": {"type": "Point", "coordinates": [-121.7507, 39.4937]}, "properties": {"city": "Richvale", "population": 153.0, "density": 63.0}}, {"type": "Feature", "geometry": {"type": "Point", "coordinates": [-119.6806, 34.9421]}, "properties": {"city": "New Cuyama", "population": 556.0, "density": 304.0}}, {"type": "Feature", "geometry": {"type": "Point", "coordinates": [-122.9054, 38.247]}, "properties": {"city": "Tomales", "population": 260.0, "density": 302.0}}, {"type": "Feature", "geometry": {"type": "Point", "coordinates": [-116.6967, 33.5679]}, "properties": {"city": "Anza", "population": 3284.0, "density": 45.0}}, {"type": "Feature", "geometry": {"type": "Point", "coordinates": [-119.1388, 35.809]}, "properties": {"city": "Rodriguez Camp", "population": 86.0, "density": 126.0}}, {"type": "Feature", "geometry": {"type": "Point", "coordinates": [-120.1156, 34.634]}, "properties": {"city": "Ballard", "population": 449.0, "density": 146.0}}, {"type": "Feature", "geometry": {"type": "Point", "coordinates": [-116.1827, 32.6278]}, "properties": {"city": "Jacumba", "population": 176.0, "density": 11.0}}, {"type": "Feature", "geometry": {"type": "Point", "coordinates": [-121.2035, 37.5444]}, "properties": {"city": "Westley", "population": 779.0, "density": 832.0}}, {"type": "Feature", "geometry": {"type": "Point", "coordinates": [-117.1572, 33.7648]}, "properties": {"city": "Romoland", "population": 2081.0, "density": 303.0}}, {"type": "Feature", "geometry": {"type": "Point", "coordinates": [-117.8819, 33.7366]}, "properties": {"city": "Santa Ana", "population": 334136.0, "density": 4715.0}}, {"type": "Feature", "geometry": {"type": "Point", "coordinates": [-121.8854, 37.5894]}, "properties": {"city": "Sunol", "population": 967.0, "density": 13.0}}, {"type": "Feature", "geometry": {"type": "Point", "coordinates": [-118.1753, 34.6934]}, "properties": {"city": "Lancaster", "population": 349218.0, "density": 656.0}}, {"type": "Feature", "geometry": {"type": "Point", "coordinates": [-118.877, 34.2855]}, "properties": {"city": "Moorpark", "population": 36802.0, "density": 1129.0}}, {"type": "Feature", "geometry": {"type": "Point", "coordinates": [-120.6486, 39.7572]}, "properties": {"city": "Graeagle", "population": 713.0, "density": 24.0}}, {"type": "Feature", "geometry": {"type": "Point", "coordinates": [-116.6279, 32.8696]}, "properties": {"city": "Descanso", "population": 1592.0, "density": 32.0}}, {"type": "Feature", "geometry": {"type": "Point", "coordinates": [-121.6051, 38.1617]}, "properties": {"city": "Isleton", "population": 845.0, "density": 742.0}}, {"type": "Feature", "geometry": {"type": "Point", "coordinates": [-119.3188, 36.6211]}, "properties": {"city": "Orange Cove", "population": 10339.0, "density": 2069.0}}, {"type": "Feature", "geometry": {"type": "Point", "coordinates": [-120.5904, 38.7564]}, "properties": {"city": "Pollock Pines", "population": 7269.0, "density": 354.0}}, {"type": "Feature", "geometry": {"type": "Point", "coordinates": [-122.0058, 41.8256]}, "properties": {"city": "Macdoel", "population": 91.0, "density": 237.0}}, {"type": "Feature", "geometry": {"type": "Point", "coordinates": [-118.2106, 34.0019]}, "properties": {"city": "Vernon", "population": 113.0, "density": 8.0}}, {"type": "Feature", "geometry": {"type": "Point", "coordinates": [-121.5504, 38.5557]}, "properties": {"city": "West Sacramento", "population": 53512.0, "density": 962.0}}, {"type": "Feature", "geometry": {"type": "Point", "coordinates": [-122.6634, 38.0067]}, "properties": {"city": "San Geronimo", "population": 444.0, "density": 113.0}}, {"type": "Feature", "geometry": {"type": "Point", "coordinates": [-119.5435, 36.6085]}, "properties": {"city": "Parlier", "population": 15245.0, "density": 2453.0}}, {"type": "Feature", "geometry": {"type": "Point", "coordinates": [-120.1285, 38.0957]}, "properties": {"city": "Long Barn", "population": 48.0, "density": 6.0}}, {"type": "Feature", "geometry": {"type": "Point", "coordinates": [-115.4944, 32.6849]}, "properties": {"city": "Calexico", "population": 40351.0, "density": 1804.0}}, {"type": "Feature", "geometry": {"type": "Point", "coordinates": [-124.2013, 40.7885]}, "properties": {"city": "Fairhaven", "population": 171.0, "density": 101.0}}, {"type": "Feature", "geometry": {"type": "Point", "coordinates": [-118.2275, 33.893]}, "properties": {"city": "Compton", "population": 97612.0, "density": 3758.0}}, {"type": "Feature", "geometry": {"type": "Point", "coordinates": [-120.6763, 38.1912]}, "properties": {"city": "San Andreas", "population": 3241.0, "density": 149.0}}, {"type": "Feature", "geometry": {"type": "Point", "coordinates": [-121.557, 38.3329]}, "properties": {"city": "Courtland", "population": 500.0, "density": 107.0}}, {"type": "Feature", "geometry": {"type": "Point", "coordinates": [-120.1399, 40.1419]}, "properties": {"city": "Herlong", "population": 1440.0, "density": 341.0}}, {"type": "Feature", "geometry": {"type": "Point", "coordinates": [-116.4401, 33.9223]}, "properties": {"city": "Desert Edge", "population": 3156.0, "density": 537.0}}, {"type": "Feature", "geometry": {"type": "Point", "coordinates": [-121.2339, 40.3017]}, "properties": {"city": "Chester", "population": 2274.0, "density": 120.0}}, {"type": "Feature", "geometry": {"type": "Point", "coordinates": [-123.8013, 39.44]}, "properties": {"city": "Fort Bragg", "population": 10403.0, "density": 973.0}}, {"type": "Feature", "geometry": {"type": "Point", "coordinates": [-119.8887, 37.4672]}, "properties": {"city": "Bootjack", "population": 839.0, "density": 46.0}}, {"type": "Feature", "geometry": {"type": "Point", "coordinates": [-121.39, 39.0287]}, "properties": {"city": "Wheatland", "population": 3818.0, "density": 182.0}}, {"type": "Feature", "geometry": {"type": "Point", "coordinates": [-117.6654, 33.9836]}, "properties": {"city": "Chino", "population": 89797.0, "density": 1169.0}}, {"type": "Feature", "geometry": {"type": "Point", "coordinates": [-120.565, 39.7403]}, "properties": {"city": "Valley Ranch", "population": 10.0, "density": 3.0}}, {"type": "Feature", "geometry": {"type": "Point", "coordinates": [-117.0158, 33.2331]}, "properties": {"city": "Valley Center", "population": 9842.0, "density": 138.0}}, {"type": "Feature", "geometry": {"type": "Point", "coordinates": [-121.6555, 36.8064]}, "properties": {"city": "Prunedale", "population": 20928.0, "density": 175.0}}, {"type": "Feature", "geometry": {"type": "Point", "coordinates": [-119.4711, 35.1337]}, "properties": {"city": "Taft Heights", "population": 2721.0, "density": 3550.0}}, {"type": "Feature", "geometry": {"type": "Point", "coordinates": [-121.0404, 40.0355]}, "properties": {"city": "Twain", "population": 41.0, "density": 2.0}}, {"type": "Feature", "geometry": {"type": "Point", "coordinates": [-120.5354, 38.6357]}, "properties": {"city": "Grizzly Flats", "population": 954.0, "density": 55.0}}, {"type": "Feature", "geometry": {"type": "Point", "coordinates": [-123.0615, 40.7274]}, "properties": {"city": "Junction City", "population": 668.0, "density": 9.0}}, {"type": "Feature", "geometry": {"type": "Point", "coordinates": [-117.3536, 34.5277]}, "properties": {"city": "Victorville", "population": 346948.0, "density": 642.0}}, {"type": "Feature", "geometry": {"type": "Point", "coordinates": [-121.2831, 37.914]}, "properties": {"city": "Taft Mosswood", "population": 1064.0, "density": 869.0}}, {"type": "Feature", "geometry": {"type": "Point", "coordinates": [-120.1748, 41.528]}, "properties": {"city": "Cedarville", "population": 289.0, "density": 20.0}}, {"type": "Feature", "geometry": {"type": "Point", "coordinates": [-119.4516, 36.349]}, "properties": {"city": "West Goshen", "population": 618.0, "density": 202.0}}, {"type": "Feature", "geometry": {"type": "Point", "coordinates": [-118.2102, 35.6839]}, "properties": {"city": "Onyx", "population": 621.0, "density": 20.0}}, {"type": "Feature", "geometry": {"type": "Point", "coordinates": [-120.8213, 39.57]}, "properties": {"city": "Downieville", "population": 90.0, "density": 10.0}}, {"type": "Feature", "geometry": {"type": "Point", "coordinates": [-118.3471, 33.76]}, "properties": {"city": "Rolling Hills", "population": 1882.0, "density": 242.0}}, {"type": "Feature", "geometry": {"type": "Point", "coordinates": [-114.7317, 33.5957]}, "properties": {"city": "Mesa Verde", "population": 644.0, "density": 57.0}}, {"type": "Feature", "geometry": {"type": "Point", "coordinates": [-121.356, 38.969]}, "properties": {"city": "Sheridan", "population": 1337.0, "density": 19.0}}, {"type": "Feature", "geometry": {"type": "Point", "coordinates": [-120.7532, 37.6227]}, "properties": {"city": "Hickman", "population": 513.0, "density": 254.0}}, {"type": "Feature", "geometry": {"type": "Point", "coordinates": [-119.7125, 34.4534]}, "properties": {"city": "Mission Canyon", "population": 2651.0, "density": 678.0}}, {"type": "Feature", "geometry": {"type": "Point", "coordinates": [-117.1147, 34.2104]}, "properties": {"city": "Running Springs", "population": 4427.0, "density": 406.0}}, {"type": "Feature", "geometry": {"type": "Point", "coordinates": [-122.1882, 37.0176]}, "properties": {"city": "Davenport", "population": 292.0, "density": 39.0}}, {"type": "Feature", "geometry": {"type": "Point", "coordinates": [-122.2651, 37.3182]}, "properties": {"city": "La Honda", "population": 574.0, "density": 52.0}}, {"type": "Feature", "geometry": {"type": "Point", "coordinates": [-118.6786, 35.8038]}, "properties": {"city": "Posey", "population": 5.0, "density": 5.0}}, {"type": "Feature", "geometry": {"type": "Point", "coordinates": [-116.8709, 32.7184]}, "properties": {"city": "Jamul", "population": 5895.0, "density": 135.0}}, {"type": "Feature", "geometry": {"type": "Point", "coordinates": [-118.374, 33.9972]}, "properties": {"city": "Ladera Heights", "population": 7081.0, "density": 921.0}}, {"type": "Feature", "geometry": {"type": "Point", "coordinates": [-117.3967, 35.7701]}, "properties": {"city": "Searles Valley", "population": 1592.0, "density": 58.0}}, {"type": "Feature", "geometry": {"type": "Point", "coordinates": [-119.5608, 36.5242]}, "properties": {"city": "Kingsburg", "population": 12002.0, "density": 1301.0}}, {"type": "Feature", "geometry": {"type": "Point", "coordinates": [-118.299, 34.6147]}, "properties": {"city": "Leona Valley", "population": 1615.0, "density": 33.0}}, {"type": "Feature", "geometry": {"type": "Point", "coordinates": [-122.4067, 38.4384]}, "properties": {"city": "Oakville", "population": 178.0, "density": 50.0}}, {"type": "Feature", "geometry": {"type": "Point", "coordinates": [-121.9077, 38.3523]}, "properties": {"city": "Elmira", "population": 247.0, "density": 179.0}}, {"type": "Feature", "geometry": {"type": "Point", "coordinates": [-120.9849, 38.8917]}, "properties": {"city": "Auburn Lake Trails", "population": 3632.0, "density": 110.0}}, {"type": "Feature", "geometry": {"type": "Point", "coordinates": [-121.1345, 40.2812]}, "properties": {"city": "Lake Almanor Peninsula", "population": 360.0, "density": 45.0}}, {"type": "Feature", "geometry": {"type": "Point", "coordinates": [-122.5065, 38.3339]}, "properties": {"city": "Eldridge", "population": 1487.0, "density": 880.0}}, {"type": "Feature", "geometry": {"type": "Point", "coordinates": [-116.3056, 35.951]}, "properties": {"city": "Shoshone", "population": 8.0, "density": 0.0}}, {"type": "Feature", "geometry": {"type": "Point", "coordinates": [-116.143, 33.6905]}, "properties": {"city": "Coachella", "population": 45443.0, "density": 583.0}}, {"type": "Feature", "geometry": {"type": "Point", "coordinates": [-119.5568, 34.4235]}, "properties": {"city": "Toro Canyon", "population": 1602.0, "density": 172.0}}, {"type": "Feature", "geometry": {"type": "Point", "coordinates": [-122.9185, 41.5471]}, "properties": {"city": "Greenview", "population": 175.0, "density": 52.0}}, {"type": "Feature", "geometry": {"type": "Point", "coordinates": [-117.8103, 33.818]}, "properties": {"city": "Villa Park", "population": 5895.0, "density": 1094.0}}, {"type": "Feature", "geometry": {"type": "Point", "coordinates": [-116.4745, 32.6394]}, "properties": {"city": "Campo", "population": 2971.0, "density": 48.0}}, {"type": "Feature", "geometry": {"type": "Point", "coordinates": [-121.641, 37.1324]}, "properties": {"city": "Morgan Hill", "population": 45037.0, "density": 1361.0}}, {"type": "Feature", "geometry": {"type": "Point", "coordinates": [-117.1184, 32.5689]}, "properties": {"city": "Imperial Beach", "population": 27418.0, "density": 2462.0}}, {"type": "Feature", "geometry": {"type": "Point", "coordinates": [-117.55, 33.9253]}, "properties": {"city": "Norco", "population": 26761.0, "density": 750.0}}, {"type": "Feature", "geometry": {"type": "Point", "coordinates": [-119.867, 36.4304]}, "properties": {"city": "Riverdale", "population": 4095.0, "density": 402.0}}, {"type": "Feature", "geometry": {"type": "Point", "coordinates": [-122.0966, 37.3685]}, "properties": {"city": "Los Altos", "population": 30743.0, "density": 1831.0}}, {"type": "Feature", "geometry": {"type": "Point", "coordinates": [-118.3508, 33.7783]}, "properties": {"city": "Rolling Hills Estates", "population": 8226.0, "density": 889.0}}, {"type": "Feature", "geometry": {"type": "Point", "coordinates": [-122.6221, 38.7519]}, "properties": {"city": "Middletown", "population": 627.0, "density": 131.0}}, {"type": "Feature", "geometry": {"type": "Point", "coordinates": [-117.9559, 34.5596]}, "properties": {"city": "Sun Village", "population": 12794.0, "density": 457.0}}, {"type": "Feature", "geometry": {"type": "Point", "coordinates": [-120.6506, 35.1492]}, "properties": {"city": "Pismo Beach", "population": 8237.0, "density": 883.0}}, {"type": "Feature", "geometry": {"type": "Point", "coordinates": [-121.9538, 37.2801]}, "properties": {"city": "Campbell", "population": 41544.0, "density": 2637.0}}, {"type": "Feature", "geometry": {"type": "Point", "coordinates": [-117.9514, 33.7105]}, "properties": {"city": "Fountain Valley", "population": 56313.0, "density": 2396.0}}, {"type": "Feature", "geometry": {"type": "Point", "coordinates": [-117.3449, 35.815]}, "properties": {"city": "Trona", "population": 49.0, "density": 2.0}}, {"type": "Feature", "geometry": {"type": "Point", "coordinates": [-117.872, 36.4846]}, "properties": {"city": "Keeler", "population": 10.0, "density": 2.0}}, {"type": "Feature", "geometry": {"type": "Point", "coordinates": [-121.7198, 36.4824]}, "properties": {"city": "Carmel Valley Village", "population": 4011.0, "density": 81.0}}, {"type": "Feature", "geometry": {"type": "Point", "coordinates": [-115.5586, 32.7867]}, "properties": {"city": "El Centro", "population": 112145.0, "density": 1488.0}}, {"type": "Feature", "geometry": {"type": "Point", "coordinates": [-118.3417, 33.8346]}, "properties": {"city": "Torrance", "population": 146758.0, "density": 2767.0}}, {"type": "Feature", "geometry": {"type": "Point", "coordinates": [-120.8471, 37.7616]}, "properties": {"city": "Oakdale", "population": 23150.0, "density": 1446.0}}, {"type": "Feature", "geometry": {"type": "Point", "coordinates": [-121.5384, 36.8457]}, "properties": {"city": "San Juan Bautista", "population": 1976.0, "density": 1072.0}}, {"type": "Feature", "geometry": {"type": "Point", "coordinates": [-115.3779, 32.8129]}, "properties": {"city": "Holtville", "population": 7637.0, "density": 2206.0}}, {"type": "Feature", "geometry": {"type": "Point", "coordinates": [-119.2599, 36.5481]}, "properties": {"city": "East Orosi", "population": 932.0, "density": 1451.0}}, {"type": "Feature", "geometry": {"type": "Point", "coordinates": [-121.1318, 38.8678]}, "properties": {"city": "Newcastle", "population": 1261.0, "density": 203.0}}, {"type": "Feature", "geometry": {"type": "Point", "coordinates": [-122.7207, 38.9512]}, "properties": {"city": "Clearlake Riviera", "population": 3616.0, "density": 267.0}}, {"type": "Feature", "geometry": {"type": "Point", "coordinates": [-121.968, 38.359]}, "properties": {"city": "Vacaville", "population": 100801.0, "density": 1321.0}}, {"type": "Feature", "geometry": {"type": "Point", "coordinates": [-118.2163, 34.6527]}, "properties": {"city": "Quartz Hill", "population": 10098.0, "density": 1035.0}}, {"type": "Feature", "geometry": {"type": "Point", "coordinates": [-121.5103, 36.5711]}, "properties": {"city": "Chualar", "population": 1409.0, "density": 868.0}}, {"type": "Feature", "geometry": {"type": "Point", "coordinates": [-121.5226, 39.4313]}, "properties": {"city": "Palermo", "population": 5713.0, "density": 75.0}}, {"type": "Feature", "geometry": {"type": "Point", "coordinates": [-122.8525, 39.1266]}, "properties": {"city": "Nice", "population": 2496.0, "density": 558.0}}, {"type": "Feature", "geometry": {"type": "Point", "coordinates": [-121.8191, 36.6224]}, "properties": {"city": "Seaside", "population": 118110.0, "density": 1426.0}}, {"type": "Feature", "geometry": {"type": "Point", "coordinates": [-118.749, 34.2663]}, "properties": {"city": "Simi Valley", "population": 127864.0, "density": 1179.0}}, {"type": "Feature", "geometry": {"type": "Point", "coordinates": [-119.1375, 36.1423]}, "properties": {"city": "Plainview", "population": 1016.0, "density": 1269.0}}, {"type": "Feature", "geometry": {"type": "Point", "coordinates": [-120.4111, 39.8485]}, "properties": {"city": "Beckwourth", "population": 186.0, "density": 6.0}}, {"type": "Feature", "geometry": {"type": "Point", "coordinates": [-122.1995, 39.5149]}, "properties": {"city": "Willows", "population": 7197.0, "density": 822.0}}, {"type": "Feature", "geometry": {"type": "Point", "coordinates": [-122.1672, 37.4686]}, "properties": {"city": "Menlo Park", "population": 34357.0, "density": 1324.0}}, {"type": "Feature", "geometry": {"type": "Point", "coordinates": [-120.9143, 37.8272]}, "properties": {"city": "Valley Home", "population": 166.0, "density": 55.0}}, {"type": "Feature", "geometry": {"type": "Point", "coordinates": [-121.3721, 38.6713]}, "properties": {"city": "North Highlands", "population": 47357.0, "density": 2075.0}}, {"type": "Feature", "geometry": {"type": "Point", "coordinates": [-124.0808, 40.8133]}, "properties": {"city": "Indianola", "population": 736.0, "density": 201.0}}, {"type": "Feature", "geometry": {"type": "Point", "coordinates": [-117.655, 33.6095]}, "properties": {"city": "Mission Viejo", "population": 600474.0, "density": 2094.0}}, {"type": "Feature", "geometry": {"type": "Point", "coordinates": [-122.0131, 37.8546]}, "properties": {"city": "Alamo", "population": 15521.0, "density": 619.0}}, {"type": "Feature", "geometry": {"type": "Point", "coordinates": [-120.491, 38.3168]}, "properties": {"city": "Rail Road Flat", "population": 255.0, "density": 2.0}}, {"type": "Feature", "geometry": {"type": "Point", "coordinates": [-121.615, 39.4909]}, "properties": {"city": "Thermalito", "population": 6905.0, "density": 209.0}}, {"type": "Feature", "geometry": {"type": "Point", "coordinates": [-118.3175, 33.7933]}, "properties": {"city": "Lomita", "population": 20707.0, "density": 4181.0}}, {"type": "Feature", "geometry": {"type": "Point", "coordinates": [-123.1123, 39.319]}, "properties": {"city": "Potter Valley", "population": 336.0, "density": 32.0}}, {"type": "Feature", "geometry": {"type": "Point", "coordinates": [-116.3396, 33.7036]}, "properties": {"city": "Indian Wells", "population": 5404.0, "density": 145.0}}, {"type": "Feature", "geometry": {"type": "Point", "coordinates": [-122.6084, 38.9118]}, "properties": {"city": "Lower Lake", "population": 1443.0, "density": 208.0}}, {"type": "Feature", "geometry": {"type": "Point", "coordinates": [-118.3235, 34.1879]}, "properties": {"city": "Burbank", "population": 104834.0, "density": 2337.0}}, {"type": "Feature", "geometry": {"type": "Point", "coordinates": [-118.9445, 34.1847]}, "properties": {"city": "Casa Conejo", "population": 3393.0, "density": 2777.0}}, {"type": "Feature", "geometry": {"type": "Point", "coordinates": [-119.2058, 35.3887]}, "properties": {"city": "Rosedale", "population": 17603.0, "density": 232.0}}, {"type": "Feature", "geometry": {"type": "Point", "coordinates": [-117.16, 32.664]}, "properties": {"city": "Coronado", "population": 24417.0, "density": 1181.0}}, {"type": "Feature", "geometry": {"type": "Point", "coordinates": [-117.3344, 33.7067]}, "properties": {"city": "Warm Springs", "population": 1417.0, "density": 391.0}}, {"type": "Feature", "geometry": {"type": "Point", "coordinates": [-119.375, 35.2159]}, "properties": {"city": "Dustin Acres", "population": 679.0, "density": 71.0}}, {"type": "Feature", "geometry": {"type": "Point", "coordinates": [-116.4216, 34.1234]}, "properties": {"city": "Yucca Valley", "population": 25009.0, "density": 210.0}}, {"type": "Feature", "geometry": {"type": "Point", "coordinates": [-122.1946, 39.2771]}, "properties": {"city": "Maxwell", "population": 942.0, "density": 169.0}}, {"type": "Feature", "geometry": {"type": "Point", "coordinates": [-120.1778, 40.1401]}, "properties": {"city": "Patton Village", "population": 638.0, "density": 74.0}}, {"type": "Feature", "geometry": {"type": "Point", "coordinates": [-117.6604, 34.1178]}, "properties": {"city": "Upland", "population": 76999.0, "density": 1904.0}}, {"type": "Feature", "geometry": {"type": "Point", "coordinates": [-122.3025, 37.9197]}, "properties": {"city": "El Cerrito", "population": 25515.0, "density": 2693.0}}, {"type": "Feature", "geometry": {"type": "Point", "coordinates": [-121.86, 40.5035]}, "properties": {"city": "Shingletown", "population": 2261.0, "density": 35.0}}, {"type": "Feature", "geometry": {"type": "Point", "coordinates": [-122.2962, 40.451]}, "properties": {"city": "Anderson", "population": 10370.0, "density": 628.0}}, {"type": "Feature", "geometry": {"type": "Point", "coordinates": [-117.4013, 34.0601]}, "properties": {"city": "Bloomington", "population": 22377.0, "density": 1422.0}}, {"type": "Feature", "geometry": {"type": "Point", "coordinates": [-116.5382, 33.8017]}, "properties": {"city": "Palm Springs", "population": 48142.0, "density": 197.0}}, {"type": "Feature", "geometry": {"type": "Point", "coordinates": [-122.2032, 37.4539]}, "properties": {"city": "Atherton", "population": 7238.0, "density": 555.0}}, {"type": "Feature", "geometry": {"type": "Point", "coordinates": [-114.6189, 34.8164]}, "properties": {"city": "Needles", "population": 8807.0, "density": 63.0}}, {"type": "Feature", "geometry": {"type": "Point", "coordinates": [-121.1666, 39.5324]}, "properties": {"city": "Clipper Mills", "population": 278.0, "density": 61.0}}, {"type": "Feature", "geometry": {"type": "Point", "coordinates": [-118.3103, 35.6431]}, "properties": {"city": "Weldon", "population": 2185.0, "density": 31.0}}, {"type": "Feature", "geometry": {"type": "Point", "coordinates": [-118.1345, 34.1928]}, "properties": {"city": "Altadena", "population": 45236.0, "density": 2063.0}}, {"type": "Feature", "geometry": {"type": "Point", "coordinates": [-117.0983, 32.6654]}, "properties": {"city": "National City", "population": 61363.0, "density": 3248.0}}, {"type": "Feature", "geometry": {"type": "Point", "coordinates": [-120.8313, 39.0053]}, "properties": {"city": "Foresthill", "population": 1475.0, "density": 50.0}}, {"type": "Feature", "geometry": {"type": "Point", "coordinates": [-120.5507, 41.5089]}, "properties": {"city": "Daphnedale Park", "population": 103.0, "density": 29.0}}, {"type": "Feature", "geometry": {"type": "Point", "coordinates": [-122.2583, 38.1796]}, "properties": {"city": "American Canyon", "population": 20247.0, "density": 1284.0}}, {"type": "Feature", "geometry": {"type": "Point", "coordinates": [-120.8584, 38.4776]}, "properties": {"city": "Plymouth", "population": 993.0, "density": 145.0}}, {"type": "Feature", "geometry": {"type": "Point", "coordinates": [-117.3894, 34.1175]}, "properties": {"city": "Rialto", "population": 103562.0, "density": 1670.0}}, {"type": "Feature", "geometry": {"type": "Point", "coordinates": [-122.6964, 38.348]}, "properties": {"city": "Rohnert Park", "population": 42838.0, "density": 2361.0}}, {"type": "Feature", "geometry": {"type": "Point", "coordinates": [-119.3987, 36.5453]}, "properties": {"city": "Dinuba", "population": 24034.0, "density": 1425.0}}, {"type": "Feature", "geometry": {"type": "Point", "coordinates": [-121.9255, 36.6191]}, "properties": {"city": "Pacific Grove", "population": 15698.0, "density": 2120.0}}, {"type": "Feature", "geometry": {"type": "Point", "coordinates": [-118.2154, 34.8658]}, "properties": {"city": "Rosamond", "population": 20024.0, "density": 148.0}}, {"type": "Feature", "geometry": {"type": "Point", "coordinates": [-121.3178, 38.7691]}, "properties": {"city": "Roseville", "population": 135329.0, "density": 1213.0}}, {"type": "Feature", "geometry": {"type": "Point", "coordinates": [-120.5501, 38.0706]}, "properties": {"city": "Angels", "population": 3723.0, "density": 405.0}}, {"type": "Feature", "geometry": {"type": "Point", "coordinates": [-122.9349, 38.4004]}, "properties": {"city": "Occidental", "population": 892.0, "density": 69.0}}, {"type": "Feature", "geometry": {"type": "Point", "coordinates": [-117.2386, 33.1896]}, "properties": {"city": "Vista", "population": 101568.0, "density": 2093.0}}, {"type": "Feature", "geometry": {"type": "Point", "coordinates": [-117.5248, 34.4398]}, "properties": {"city": "Phelan", "population": 15123.0, "density": 97.0}}, {"type": "Feature", "geometry": {"type": "Point", "coordinates": [-119.6945, 36.7294]}, "properties": {"city": "Sunnyside", "population": 4454.0, "density": 898.0}}, {"type": "Feature", "geometry": {"type": "Point", "coordinates": [-120.5846, 40.3789]}, "properties": {"city": "Johnstonville", "population": 1159.0, "density": 53.0}}, {"type": "Feature", "geometry": {"type": "Point", "coordinates": [-122.8471, 38.0821]}, "properties": {"city": "Inverness", "population": 1160.0, "density": 69.0}}, {"type": "Feature", "geometry": {"type": "Point", "coordinates": [-118.1858, 34.4956]}, "properties": {"city": "Acton", "population": 7278.0, "density": 71.0}}, {"type": "Feature", "geometry": {"type": "Point", "coordinates": [-118.139, 34.1597]}, "properties": {"city": "Pasadena", "population": 142647.0, "density": 2398.0}}, {"type": "Feature", "geometry": {"type": "Point", "coordinates": [-120.841, 39.4666]}, "properties": {"city": "Alleghany", "population": 130.0, "density": 143.0}}, {"type": "Feature", "geometry": {"type": "Point", "coordinates": [-121.3106, 36.7904]}, "properties": {"city": "Tres Pinos", "population": 596.0, "density": 63.0}}, {"type": "Feature", "geometry": {"type": "Point", "coordinates": [-118.6317, 34.4818]}, "properties": {"city": "Castaic", "population": 19299.0, "density": 1026.0}}, {"type": "Feature", "geometry": {"type": "Point", "coordinates": [-122.5445, 39.3703]}, "properties": {"city": "Stonyford", "population": 369.0, "density": 49.0}}, {"type": "Feature", "geometry": {"type": "Point", "coordinates": [-123.2499, 39.8025]}, "properties": {"city": "Covelo", "population": 1223.0, "density": 66.0}}, {"type": "Feature", "geometry": {"type": "Point", "coordinates": [-120.4623, 34.7111]}, "properties": {"city": "Vandenberg Village", "population": 7541.0, "density": 554.0}}, {"type": "Feature", "geometry": {"type": "Point", "coordinates": [-121.0847, 35.5523]}, "properties": {"city": "Cambria", "population": 5934.0, "density": 269.0}}, {"type": "Feature", "geometry": {"type": "Point", "coordinates": [-123.8174, 40.2289]}, "properties": {"city": "Miranda", "population": 710.0, "density": 183.0}}, {"type": "Feature", "geometry": {"type": "Point", "coordinates": [-122.2556, 38.3536]}, "properties": {"city": "Silverado Resort", "population": 976.0, "density": 199.0}}, {"type": "Feature", "geometry": {"type": "Point", "coordinates": [-121.7805, 36.9583]}, "properties": {"city": "Amesti", "population": 2851.0, "density": 374.0}}, {"type": "Feature", "geometry": {"type": "Point", "coordinates": [-120.3207, 37.2892]}, "properties": {"city": "Planada", "population": 4472.0, "density": 1094.0}}, {"type": "Feature", "geometry": {"type": "Point", "coordinates": [-123.4689, 40.6262]}, "properties": {"city": "Hyampom", "population": 63.0, "density": 1.0}}, {"type": "Feature", "geometry": {"type": "Point", "coordinates": [-120.5191, 39.7613]}, "properties": {"city": "Gold Mountain", "population": 0.0, "density": 0.0}}, {"type": "Feature", "geometry": {"type": "Point", "coordinates": [-117.7667, 35.6387]}, "properties": {"city": "China Lake Acres", "population": 2446.0, "density": 181.0}}, {"type": "Feature", "geometry": {"type": "Point", "coordinates": [-116.8872, 33.7436]}, "properties": {"city": "Valle Vista", "population": 16672.0, "density": 936.0}}, {"type": "Feature", "geometry": {"type": "Point", "coordinates": [-120.2783, 34.7375]}, "properties": {"city": "Los Alamos", "population": 1447.0, "density": 144.0}}, {"type": "Feature", "geometry": {"type": "Point", "coordinates": [-118.6427, 35.8737]}, "properties": {"city": "Pine Flat", "population": 157.0, "density": 52.0}}, {"type": "Feature", "geometry": {"type": "Point", "coordinates": [-122.0312, 37.5204]}, "properties": {"city": "Newark", "population": 47531.0, "density": 1322.0}}, {"type": "Feature", "geometry": {"type": "Point", "coordinates": [-116.9851, 32.8554]}, "properties": {"city": "Santee", "population": 58113.0, "density": 1356.0}}, {"type": "Feature", "geometry": {"type": "Point", "coordinates": [-120.179, 38.057]}, "properties": {"city": "Mi-Wuk Village", "population": 1065.0, "density": 148.0}}, {"type": "Feature", "geometry": {"type": "Point", "coordinates": [-123.0732, 38.3836]}, "properties": {"city": "Sereno del Mar", "population": 63.0, "density": 32.0}}, {"type": "Feature", "geometry": {"type": "Point", "coordinates": [-118.222, 33.9683]}, "properties": {"city": "Walnut Park", "population": 15915.0, "density": 8217.0}}, {"type": "Feature", "geometry": {"type": "Point", "coordinates": [-119.0698, 34.3521]}, "properties": {"city": "Santa Paula", "population": 30747.0, "density": 2578.0}}, {"type": "Feature", "geometry": {"type": "Point", "coordinates": [-120.9074, 36.0238]}, "properties": {"city": "San Ardo", "population": 623.0, "density": 535.0}}, {"type": "Feature", "geometry": {"type": "Point", "coordinates": [-119.5993, 36.6562]}, "properties": {"city": "Del Rey", "population": 1486.0, "density": 471.0}}, {"type": "Feature", "geometry": {"type": "Point", "coordinates": [-120.2697, 38.0124]}, "properties": {"city": "Mono Vista", "population": 3346.0, "density": 455.0}}, {"type": "Feature", "geometry": {"type": "Point", "coordinates": [-117.6712, 33.6606]}, "properties": {"city": "Lake Forest", "population": 84293.0, "density": 1956.0}}, {"type": "Feature", "geometry": {"type": "Point", "coordinates": [-120.3828, 37.9819]}, "properties": {"city": "Sonora", "population": 27995.0, "density": 592.0}}, {"type": "Feature", "geometry": {"type": "Point", "coordinates": [-121.2128, 39.3657]}, "properties": {"city": "Dobbins", "population": 696.0, "density": 34.0}}, {"type": "Feature", "geometry": {"type": "Point", "coordinates": [-117.8669, 33.6151]}, "properties": {"city": "Newport Beach", "population": 86160.0, "density": 1396.0}}, {"type": "Feature", "geometry": {"type": "Point", "coordinates": [-121.0439, 37.9763]}, "properties": {"city": "Peters", "population": 465.0, "density": 71.0}}, {"type": "Feature", "geometry": {"type": "Point", "coordinates": [-121.968, 37.3646]}, "properties": {"city": "Santa Clara", "population": 127134.0, "density": 2667.0}}, {"type": "Feature", "geometry": {"type": "Point", "coordinates": [-116.5107, 32.8415]}, "properties": {"city": "Pine Valley", "population": 1878.0, "density": 101.0}}, {"type": "Feature", "geometry": {"type": "Point", "coordinates": [-117.7299, 33.6099]}, "properties": {"city": "Laguna Woods", "population": 16200.0, "density": 1869.0}}, {"type": "Feature", "geometry": {"type": "Point", "coordinates": [-122.6707, 38.3005]}, "properties": {"city": "Penngrove", "population": 2922.0, "density": 280.0}}, {"type": "Feature", "geometry": {"type": "Point", "coordinates": [-118.3783, 34.659]}, "properties": {"city": "Elizabeth Lake", "population": 1884.0, "density": 116.0}}, {"type": "Feature", "geometry": {"type": "Point", "coordinates": [-122.4924, 37.5482]}, "properties": {"city": "Montara", "population": 2909.0, "density": 289.0}}, {"type": "Feature", "geometry": {"type": "Point", "coordinates": [-118.3586, 33.938]}, "properties": {"city": "Lennox", "population": 21537.0, "density": 7604.0}}, {"type": "Feature", "geometry": {"type": "Point", "coordinates": [-117.0472, 34.8661]}, "properties": {"city": "Barstow", "population": 30606.0, "density": 223.0}}, {"type": "Feature", "geometry": {"type": "Point", "coordinates": [-121.528, 38.2477]}, "properties": {"city": "Walnut Grove", "population": 1342.0, "density": 50.0}}, {"type": "Feature", "geometry": {"type": "Point", "coordinates": [-123.822, 40.1209]}, "properties": {"city": "Redway", "population": 1433.0, "density": 442.0}}, {"type": "Feature", "geometry": {"type": "Point", "coordinates": [-116.293, 33.779]}, "properties": {"city": "Desert Palms", "population": 6949.0, "density": 1004.0}}, {"type": "Feature", "geometry": {"type": "Point", "coordinates": [-121.7417, 36.9016]}, "properties": {"city": "Pajaro", "population": 3644.0, "density": 1517.0}}, {"type": "Feature", "geometry": {"type": "Point", "coordinates": [-119.8033, 38.8103]}, "properties": {"city": "Mesa Vista", "population": 291.0, "density": 23.0}}, {"type": "Feature", "geometry": {"type": "Point", "coordinates": [-117.9124, 34.1386]}, "properties": {"city": "Azusa", "population": 49864.0, "density": 1991.0}}, {"type": "Feature", "geometry": {"type": "Point", "coordinates": [-122.4383, 37.4688]}, "properties": {"city": "Half Moon Bay", "population": 23540.0, "density": 773.0}}, {"type": "Feature", "geometry": {"type": "Point", "coordinates": [-121.956, 37.2302]}, "properties": {"city": "Los Gatos", "population": 30724.0, "density": 1039.0}}, {"type": "Feature", "geometry": {"type": "Point", "coordinates": [-122.2834, 37.9931]}, "properties": {"city": "Pinole", "population": 19364.0, "density": 1464.0}}, {"type": "Feature", "geometry": {"type": "Point", "coordinates": [-123.6972, 41.0803]}, "properties": {"city": "Hoopa", "population": 3393.0, "density": 64.0}}, {"type": "Feature", "geometry": {"type": "Point", "coordinates": [-122.5699, 37.9821]}, "properties": {"city": "San Anselmo", "population": 12580.0, "density": 1814.0}}, {"type": "Feature", "geometry": {"type": "Point", "coordinates": [-121.5963, 37.0829]}, "properties": {"city": "San Martin", "population": 7313.0, "density": 243.0}}, {"type": "Feature", "geometry": {"type": "Point", "coordinates": [-119.49, 37.0754]}, "properties": {"city": "Auberry", "population": 2582.0, "density": 52.0}}, {"type": "Feature", "geometry": {"type": "Point", "coordinates": [-116.3551, 33.8912]}, "properties": {"city": "Sky Valley", "population": 2430.0, "density": 38.0}}, {"type": "Feature", "geometry": {"type": "Point", "coordinates": [-119.7908, 36.6524]}, "properties": {"city": "Easton", "population": 2087.0, "density": 267.0}}, {"type": "Feature", "geometry": {"type": "Point", "coordinates": [-124.0857, 40.9489]}, "properties": {"city": "McKinleyville", "population": 16963.0, "density": 314.0}}, {"type": "Feature", "geometry": {"type": "Point", "coordinates": [-122.5187, 37.9056]}, "properties": {"city": "Alto", "population": 751.0, "density": 2305.0}}, {"type": "Feature", "geometry": {"type": "Point", "coordinates": [-122.4932, 37.858]}, "properties": {"city": "Sausalito", "population": 7141.0, "density": 1557.0}}, {"type": "Feature", "geometry": {"type": "Point", "coordinates": [-122.3448, 37.5227]}, "properties": {"city": "Highlands-Baywood Park", "population": 4245.0, "density": 905.0}}, {"type": "Feature", "geometry": {"type": "Point", "coordinates": [-121.9814, 38.4426]}, "properties": {"city": "Allendale", "population": 1403.0, "density": 88.0}}, {"type": "Feature", "geometry": {"type": "Point", "coordinates": [-121.3553, 38.5477]}, "properties": {"city": "Rosemont", "population": 23700.0, "density": 2092.0}}, {"type": "Feature", "geometry": {"type": "Point", "coordinates": [-121.8964, 37.7161]}, "properties": {"city": "Dublin", "population": 60939.0, "density": 1545.0}}, {"type": "Feature", "geometry": {"type": "Point", "coordinates": [-119.7012, 36.7941]}, "properties": {"city": "Tarpey Village", "population": 3200.0, "density": 1554.0}}, {"type": "Feature", "geometry": {"type": "Point", "coordinates": [-122.1349, 37.6737]}, "properties": {"city": "San Lorenzo", "population": 25101.0, "density": 3491.0}}, {"type": "Feature", "geometry": {"type": "Point", "coordinates": [-121.8559, 37.0255]}, "properties": {"city": "Day Valley", "population": 3816.0, "density": 79.0}}, {"type": "Feature", "geometry": {"type": "Point", "coordinates": [-121.003, 40.0334]}, "properties": {"city": "Paxton", "population": 0.0, "density": 0.0}}, {"type": "Feature", "geometry": {"type": "Point", "coordinates": [-118.5771, 36.1436]}, "properties": {"city": "Cedar Slope", "population": 0.0, "density": 0.0}}, {"type": "Feature", "geometry": {"type": "Point", "coordinates": [-121.9176, 36.977]}, "properties": {"city": "Seacliff", "population": 3231.0, "density": 1709.0}}, {"type": "Feature", "geometry": {"type": "Point", "coordinates": [-121.3111, 37.9766]}, "properties": {"city": "Stockton", "population": 394467.0, "density": 1943.0}}, {"type": "Feature", "geometry": {"type": "Point", "coordinates": [-122.4512, 38.5776]}, "properties": {"city": "Angwin", "population": 3463.0, "density": 276.0}}, {"type": "Feature", "geometry": {"type": "Point", "coordinates": [-116.2074, 35.835]}, "properties": {"city": "Tecopa", "population": 153.0, "density": 3.0}}, {"type": "Feature", "geometry": {"type": "Point", "coordinates": [-121.7875, 39.6232]}, "properties": {"city": "Durham", "population": 5819.0, "density": 27.0}}, {"type": "Feature", "geometry": {"type": "Point", "coordinates": [-120.4269, 34.8668]}, "properties": {"city": "Orcutt", "population": 30001.0, "density": 1041.0}}, {"type": "Feature", "geometry": {"type": "Point", "coordinates": [-122.2675, 37.4663]}, "properties": {"city": "Emerald Lake Hills", "population": 4648.0, "density": 1501.0}}, {"type": "Feature", "geometry": {"type": "Point", "coordinates": [-122.1985, 38.8274]}, "properties": {"city": "Guinda", "population": 259.0, "density": 34.0}}, {"type": "Feature", "geometry": {"type": "Point", "coordinates": [-116.0113, 33.3759]}, "properties": {"city": "Salton Sea Beach", "population": 549.0, "density": 703.0}}, {"type": "Feature", "geometry": {"type": "Point", "coordinates": [-122.0319, 38.2594]}, "properties": {"city": "Fairfield", "population": 147582.0, "density": 1094.0}}, {"type": "Feature", "geometry": {"type": "Point", "coordinates": [-121.319, 38.4744]}, "properties": {"city": "Vineyard", "population": 27585.0, "density": 619.0}}, {"type": "Feature", "geometry": {"type": "Point", "coordinates": [-122.0786, 37.9045]}, "properties": {"city": "Acalanes Ridge", "population": 894.0, "density": 749.0}}, {"type": "Feature", "geometry": {"type": "Point", "coordinates": [-117.8093, 35.0474]}, "properties": {"city": "North Edwards", "population": 812.0, "density": 24.0}}, {"type": "Feature", "geometry": {"type": "Point", "coordinates": [-118.0823, 34.0688]}, "properties": {"city": "Rosemead", "population": 54554.0, "density": 4080.0}}, {"type": "Feature", "geometry": {"type": "Point", "coordinates": [-120.3686, 40.1634]}, "properties": {"city": "Milford", "population": 183.0, "density": 13.0}}, {"type": "Feature", "geometry": {"type": "Point", "coordinates": [-121.5387, 39.3326]}, "properties": {"city": "Honcut", "population": 150.0, "density": 13.0}}, {"type": "Feature", "geometry": {"type": "Point", "coordinates": [-120.9981, 37.7912]}, "properties": {"city": "Escalon", "population": 7615.0, "density": 1273.0}}, {"type": "Feature", "geometry": {"type": "Point", "coordinates": [-118.0803, 33.7886]}, "properties": {"city": "Rossmoor", "population": 10920.0, "density": 2731.0}}, {"type": "Feature", "geometry": {"type": "Point", "coordinates": [-119.2469, 34.4487]}, "properties": {"city": "Ojai", "population": 7582.0, "density": 673.0}}, {"type": "Feature", "geometry": {"type": "Point", "coordinates": [-120.7978, 38.7308]}, "properties": {"city": "Placerville", "population": 31260.0, "density": 722.0}}, {"type": "Feature", "geometry": {"type": "Point", "coordinates": [-118.0484, 34.0493]}, "properties": {"city": "South El Monte", "population": 20987.0, "density": 2849.0}}, {"type": "Feature", "geometry": {"type": "Point", "coordinates": [-122.1696, 40.5576]}, "properties": {"city": "Millville", "population": 657.0, "density": 31.0}}, {"type": "Feature", "geometry": {"type": "Point", "coordinates": [-117.4677, 33.7581]}, "properties": {"city": "Temescal Valley", "population": 25411.0, "density": 507.0}}, {"type": "Feature", "geometry": {"type": "Point", "coordinates": [-121.9565, 37.8408]}, "properties": {"city": "Diablo", "population": 618.0, "density": 175.0}}, {"type": "Feature", "geometry": {"type": "Point", "coordinates": [-118.627, 35.8068]}, "properties": {"city": "Panorama Heights", "population": 38.0, "density": 30.0}}, {"type": "Feature", "geometry": {"type": "Point", "coordinates": [-122.7734, 38.4937]}, "properties": {"city": "Fulton", "population": 493.0, "density": 97.0}}, {"type": "Feature", "geometry": {"type": "Point", "coordinates": [-116.4271, 33.7634]}, "properties": {"city": "Rancho Mirage", "population": 18306.0, "density": 278.0}}, {"type": "Feature", "geometry": {"type": "Point", "coordinates": [-121.6381, 39.1357]}, "properties": {"city": "Yuba City", "population": 120186.0, "density": 1732.0}}, {"type": "Feature", "geometry": {"type": "Point", "coordinates": [-116.7874, 33.0093]}, "properties": {"city": "San Diego Country Estates", "population": 10633.0, "density": 244.0}}, {"type": "Feature", "geometry": {"type": "Point", "coordinates": [-121.9539, 36.9772]}, "properties": {"city": "Capitola", "population": 10180.0, "density": 2467.0}}, {"type": "Feature", "geometry": {"type": "Point", "coordinates": [-119.9322, 36.4377]}, "properties": {"city": "Lanare", "population": 176.0, "density": 33.0}}, {"type": "Feature", "geometry": {"type": "Point", "coordinates": [-122.0539, 37.9261]}, "properties": {"city": "Contra Costa Centre", "population": 6440.0, "density": 3906.0}}, {"type": "Feature", "geometry": {"type": "Point", "coordinates": [-118.11, 36.0076]}, "properties": {"city": "Kennedy Meadows", "population": 21.0, "density": 1.0}}, {"type": "Feature", "geometry": {"type": "Point", "coordinates": [-117.5989, 33.6317]}, "properties": {"city": "Rancho Santa Margarita", "population": 48793.0, "density": 1461.0}}, {"type": "Feature", "geometry": {"type": "Point", "coordinates": [-115.9092, 33.5157]}, "properties": {"city": "North Shore", "population": 3349.0, "density": 115.0}}, {"type": "Feature", "geometry": {"type": "Point", "coordinates": [-121.7363, 36.9505]}, "properties": {"city": "Interlaken", "population": 6725.0, "density": 264.0}}, {"type": "Feature", "geometry": {"type": "Point", "coordinates": [-116.4145, 34.273]}, "properties": {"city": "Homestead Valley", "population": 2987.0, "density": 34.0}}, {"type": "Feature", "geometry": {"type": "Point", "coordinates": [-119.516, 38.5834]}, "properties": {"city": "Coleville", "population": 328.0, "density": 9.0}}, {"type": "Feature", "geometry": {"type": "Point", "coordinates": [-121.6511, 37.9633]}, "properties": {"city": "Knightsen", "population": 1576.0, "density": 72.0}}, {"type": "Feature", "geometry": {"type": "Point", "coordinates": [-123.7908, 39.311]}, "properties": {"city": "Mendocino", "population": 664.0, "density": 113.0}}, {"type": "Feature", "geometry": {"type": "Point", "coordinates": [-122.2714, 41.2319]}, "properties": {"city": "Dunsmuir", "population": 1580.0, "density": 380.0}}, {"type": "Feature", "geometry": {"type": "Point", "coordinates": [-120.0201, 39.249]}, "properties": {"city": "Kings Beach", "population": 2824.0, "density": 317.0}}, {"type": "Feature", "geometry": {"type": "Point", "coordinates": [-123.8737, 40.2666]}, "properties": {"city": "Myers Flat", "population": 0.0, "density": 0.0}}, {"type": "Feature", "geometry": {"type": "Point", "coordinates": [-117.5641, 33.862]}, "properties": {"city": "Corona", "population": 167836.0, "density": 1643.0}}, {"type": "Feature", "geometry": {"type": "Point", "coordinates": [-121.0768, 40.2451]}, "properties": {"city": "East Shore", "population": 193.0, "density": 62.0}}, {"type": "Feature", "geometry": {"type": "Point", "coordinates": [-122.6311, 41.7292]}, "properties": {"city": "Yreka", "population": 7437.0, "density": 293.0}}, {"type": "Feature", "geometry": {"type": "Point", "coordinates": [-116.9762, 33.907]}, "properties": {"city": "Beaumont", "population": 46967.0, "density": 604.0}}, {"type": "Feature", "geometry": {"type": "Point", "coordinates": [-120.4177, 37.2966]}, "properties": {"city": "Bear Creek", "population": 186.0, "density": 1253.0}}, {"type": "Feature", "geometry": {"type": "Point", "coordinates": [-122.3425, 37.9628]}, "properties": {"city": "San Pablo", "population": 31156.0, "density": 4574.0}}, {"type": "Feature", "geometry": {"type": "Point", "coordinates": [-119.8009, 38.7856]}, "properties": {"city": "Alpine Village", "population": 179.0, "density": 24.0}}, {"type": "Feature", "geometry": {"type": "Point", "coordinates": [-120.2706, 38.2949]}, "properties": {"city": "Dorrington", "population": 238.0, "density": 25.0}}, {"type": "Feature", "geometry": {"type": "Point", "coordinates": [-124.1494, 41.925]}, "properties": {"city": "Smith River", "population": 746.0, "density": 72.0}}, {"type": "Feature", "geometry": {"type": "Point", "coordinates": [-121.6951, 37.9929]}, "properties": {"city": "Oakley", "population": 41714.0, "density": 1015.0}}, {"type": "Feature", "geometry": {"type": "Point", "coordinates": [-118.316, 34.5044]}, "properties": {"city": "Agua Dulce", "population": 3598.0, "density": 60.0}}, {"type": "Feature", "geometry": {"type": "Point", "coordinates": [-121.4068, 41.0415]}, "properties": {"city": "McArthur", "population": 380.0, "density": 146.0}}, {"type": "Feature", "geometry": {"type": "Point", "coordinates": [-121.4866, 39.4947]}, "properties": {"city": "Oroville East", "population": 7349.0, "density": 131.0}}, {"type": "Feature", "geometry": {"type": "Point", "coordinates": [-121.9079, 39.1404]}, "properties": {"city": "Meridian", "population": 451.0, "density": 32.0}}, {"type": "Feature", "geometry": {"type": "Point", "coordinates": [-118.4153, 37.3864]}, "properties": {"city": "Dixon Lane-Meadow Creek", "population": 2738.0, "density": 314.0}}, {"type": "Feature", "geometry": {"type": "Point", "coordinates": [-117.7253, 33.9507]}, "properties": {"city": "Chino Hills", "population": 80374.0, "density": 694.0}}, {"type": "Feature", "geometry": {"type": "Point", "coordinates": [-117.1942, 33.2761]}, "properties": {"city": "Bonsall", "population": 4341.0, "density": 125.0}}, {"type": "Feature", "geometry": {"type": "Point", "coordinates": [-121.1422, 38.6669]}, "properties": {"city": "Folsom", "population": 78038.0, "density": 1083.0}}, {"type": "Feature", "geometry": {"type": "Point", "coordinates": [-120.6129, 40.4205]}, "properties": {"city": "Susanville", "population": 8783.0, "density": 744.0}}, {"type": "Feature", "geometry": {"type": "Point", "coordinates": [-122.5222, 37.9904]}, "properties": {"city": "San Rafael", "population": 59070.0, "density": 1376.0}}, {"type": "Feature", "geometry": {"type": "Point", "coordinates": [-118.6689, 34.1375]}, "properties": {"city": "Calabasas", "population": 24202.0, "density": 682.0}}, {"type": "Feature", "geometry": {"type": "Point", "coordinates": [-119.6148, 34.9312]}, "properties": {"city": "Cuyama", "population": 16.0, "density": 13.0}}, {"type": "Feature", "geometry": {"type": "Point", "coordinates": [-119.6395, 37.5482]}, "properties": {"city": "Wawona", "population": 237.0, "density": 14.0}}, {"type": "Feature", "geometry": {"type": "Point", "coordinates": [-121.5196, 39.7733]}, "properties": {"city": "Concow", "population": 762.0, "density": 10.0}}, {"type": "Feature", "geometry": {"type": "Point", "coordinates": [-118.8221, 34.1369]}, "properties": {"city": "Westlake Village", "population": 8440.0, "density": 628.0}}, {"type": "Feature", "geometry": {"type": "Point", "coordinates": [-120.2942, 34.8622]}, "properties": {"city": "Sisquoc", "population": 238.0, "density": 41.0}}, {"type": "Feature", "geometry": {"type": "Point", "coordinates": [-120.7728, 38.3485]}, "properties": {"city": "Jackson", "population": 7394.0, "density": 509.0}}, {"type": "Feature", "geometry": {"type": "Point", "coordinates": [-121.5148, 38.9263]}, "properties": {"city": "Trowbridge", "population": 241.0, "density": 13.0}}, {"type": "Feature", "geometry": {"type": "Point", "coordinates": [-122.5824, 38.5818]}, "properties": {"city": "Calistoga", "population": 5273.0, "density": 790.0}}, {"type": "Feature", "geometry": {"type": "Point", "coordinates": [-117.6416, 33.5491]}, "properties": {"city": "Ladera Ranch", "population": 28769.0, "density": 2260.0}}, {"type": "Feature", "geometry": {"type": "Point", "coordinates": [-123.7812, 39.4927]}, "properties": {"city": "Cleone", "population": 760.0, "density": 184.0}}, {"type": "Feature", "geometry": {"type": "Point", "coordinates": [-119.4584, 35.1647]}, "properties": {"city": "Ford City", "population": 4388.0, "density": 1103.0}}, {"type": "Feature", "geometry": {"type": "Point", "coordinates": [-121.7576, 38.5374]}, "properties": {"city": "University of California-Davis", "population": 7221.0, "density": 1906.0}}, {"type": "Feature", "geometry": {"type": "Point", "coordinates": [-116.1261, 33.5275]}, "properties": {"city": "Oasis", "population": 3240.0, "density": 63.0}}, {"type": "Feature", "geometry": {"type": "Point", "coordinates": [-121.7894, 36.6812]}, "properties": {"city": "Marina", "population": 22145.0, "density": 961.0}}, {"type": "Feature", "geometry": {"type": "Point", "coordinates": [-117.6103, 33.4498]}, "properties": {"city": "San Clemente", "population": 65267.0, "density": 1372.0}}, {"type": "Feature", "geometry": {"type": "Point", "coordinates": [-118.0188, 33.9678]}, "properties": {"city": "Whittier", "population": 86838.0, "density": 2288.0}}, {"type": "Feature", "geometry": {"type": "Point", "coordinates": [-119.1466, 38.0412]}, "properties": {"city": "Mono City", "population": 58.0, "density": 4.0}}, {"type": "Feature", "geometry": {"type": "Point", "coordinates": [-117.7613, 33.5449]}, "properties": {"city": "Laguna Beach", "population": 23147.0, "density": 1005.0}}, {"type": "Feature", "geometry": {"type": "Point", "coordinates": [-118.4321, 35.7531]}, "properties": {"city": "Kernville", "population": 1175.0, "density": 36.0}}, {"type": "Feature", "geometry": {"type": "Point", "coordinates": [-118.6508, 36.4638]}, "properties": {"city": "Silver City", "population": 0.0, "density": 0.0}}, {"type": "Feature", "geometry": {"type": "Point", "coordinates": [-121.1309, 37.7415]}, "properties": {"city": "Ripon", "population": 15677.0, "density": 1149.0}}, {"type": "Feature", "geometry": {"type": "Point", "coordinates": [-119.2687, 35.4689]}, "properties": {"city": "Mexican Colony", "population": 391.0, "density": 4750.0}}, {"type": "Feature", "geometry": {"type": "Point", "coordinates": [-122.245, 40.6502]}, "properties": {"city": "Bella Vista", "population": 2771.0, "density": 48.0}}, {"type": "Feature", "geometry": {"type": "Point", "coordinates": [-124.0822, 40.5579]}, "properties": {"city": "Hydesville", "population": 1004.0, "density": 51.0}}, {"type": "Feature", "geometry": {"type": "Point", "coordinates": [-115.5146, 33.2387]}, "properties": {"city": "Niland", "population": 690.0, "density": 663.0}}, {"type": "Feature", "geometry": {"type": "Point", "coordinates": [-123.0308, 38.325]}, "properties": {"city": "Bodega Bay", "population": 629.0, "density": 29.0}}, {"type": "Feature", "geometry": {"type": "Point", "coordinates": [-120.4436, 39.6633]}, "properties": {"city": "Calpine", "population": 212.0, "density": 115.0}}, {"type": "Feature", "geometry": {"type": "Point", "coordinates": [-121.4809, 40.8101]}, "properties": {"city": "Hat Creek", "population": 219.0, "density": 1.0}}, {"type": "Feature", "geometry": {"type": "Point", "coordinates": [-116.2896, 32.664]}, "properties": {"city": "Boulevard", "population": 439.0, "density": 43.0}}, {"type": "Feature", "geometry": {"type": "Point", "coordinates": [-118.2559, 33.8374]}, "properties": {"city": "Carson", "population": 92735.0, "density": 1912.0}}, {"type": "Feature", "geometry": {"type": "Point", "coordinates": [-120.5735, 34.9608]}, "properties": {"city": "Guadalupe", "population": 7370.0, "density": 2171.0}}, {"type": "Feature", "geometry": {"type": "Point", "coordinates": [-121.7211, 36.8103]}, "properties": {"city": "Elkhorn", "population": 1052.0, "density": 84.0}}, {"type": "Feature", "geometry": {"type": "Point", "coordinates": [-120.4968, 39.8101]}, "properties": {"city": "Delleker", "population": 669.0, "density": 93.0}}, {"type": "Feature", "geometry": {"type": "Point", "coordinates": [-118.0025, 33.696]}, "properties": {"city": "Huntington Beach", "population": 201874.0, "density": 2886.0}}, {"type": "Feature", "geometry": {"type": "Point", "coordinates": [-122.1373, 39.1487]}, "properties": {"city": "Williams", "population": 5410.0, "density": 379.0}}, {"type": "Feature", "geometry": {"type": "Point", "coordinates": [-120.1401, 34.5936]}, "properties": {"city": "Solvang", "population": 16741.0, "density": 940.0}}, {"type": "Feature", "geometry": {"type": "Point", "coordinates": [-122.8277, 38.4]}, "properties": {"city": "Sebastopol", "population": 7666.0, "density": 1591.0}}, {"type": "Feature", "geometry": {"type": "Point", "coordinates": [-121.384, 38.416]}, "properties": {"city": "Elk Grove", "population": 171844.0, "density": 1580.0}}, {"type": "Feature", "geometry": {"type": "Point", "coordinates": [-114.653, 33.5238]}, "properties": {"city": "Ripley", "population": 493.0, "density": 111.0}}, {"type": "Feature", "geometry": {"type": "Point", "coordinates": [-122.182, 39.9282]}, "properties": {"city": "Corning", "population": 8473.0, "density": 825.0}}, {"type": "Feature", "geometry": {"type": "Point", "coordinates": [-119.2617, 35.4698]}, "properties": {"city": "Cherokee Strip", "population": 137.0, "density": 583.0}}, {"type": "Feature", "geometry": {"type": "Point", "coordinates": [-117.289, 34.2486]}, "properties": {"city": "Crestline", "population": 9581.0, "density": 267.0}}, {"type": "Feature", "geometry": {"type": "Point", "coordinates": [-120.5387, 35.0497]}, "properties": {"city": "Blacklake", "population": 1041.0, "density": 384.0}}, {"type": "Feature", "geometry": {"type": "Point", "coordinates": [-117.7738, 33.6772]}, "properties": {"city": "Irvine", "population": 277453.0, "density": 1633.0}}, {"type": "Feature", "geometry": {"type": "Point", "coordinates": [-118.1132, 34.1224]}, "properties": {"city": "San Marino", "population": 13327.0, "density": 1366.0}}, {"type": "Feature", "geometry": {"type": "Point", "coordinates": [-122.1038, 37.6792]}, "properties": {"city": "Cherryland", "population": 15999.0, "density": 5155.0}}, {"type": "Feature", "geometry": {"type": "Point", "coordinates": [-117.9721, 34.0829]}, "properties": {"city": "Baldwin Park", "population": 76402.0, "density": 4448.0}}, {"type": "Feature", "geometry": {"type": "Point", "coordinates": [-124.1594, 41.7524]}, "properties": {"city": "Bertsch-Oceanview", "population": 2140.0, "density": 155.0}}, {"type": "Feature", "geometry": {"type": "Point", "coordinates": [-121.2497, 38.6504]}, "properties": {"city": "Fair Oaks", "population": 30704.0, "density": 1090.0}}, {"type": "Feature", "geometry": {"type": "Point", "coordinates": [-120.5845, 35.1242]}, "properties": {"city": "Arroyo Grande", "population": 54620.0, "density": 1178.0}}, {"type": "Feature", "geometry": {"type": "Point", "coordinates": [-120.1613, 39.1504]}, "properties": {"city": "Sunnyside-Tahoe City", "population": 1267.0, "density": 144.0}}, {"type": "Feature", "geometry": {"type": "Point", "coordinates": [-122.1855, 39.7461]}, "properties": {"city": "Orland", "population": 9747.0, "density": 994.0}}, {"type": "Feature", "geometry": {"type": "Point", "coordinates": [-122.132, 37.9665]}, "properties": {"city": "Alhambra Valley", "population": 679.0, "density": 195.0}}, {"type": "Feature", "geometry": {"type": "Point", "coordinates": [-120.866, 37.602]}, "properties": {"city": "Hughson", "population": 7498.0, "density": 1489.0}}, {"type": "Feature", "geometry": {"type": "Point", "coordinates": [-121.0153, 37.1014]}, "properties": {"city": "Santa Nella", "population": 1976.0, "density": 167.0}}, {"type": "Feature", "geometry": {"type": "Point", "coordinates": [-120.3777, 36.7555]}, "properties": {"city": "Mendota", "population": 11642.0, "density": 1340.0}}, {"type": "Feature", "geometry": {"type": "Point", "coordinates": [-122.0414, 37.0889]}, "properties": {"city": "Zayante", "population": 1096.0, "density": 155.0}}, {"type": "Feature", "geometry": {"type": "Point", "coordinates": [-122.1369, 37.0435]}, "properties": {"city": "Bonny Doon", "population": 3086.0, "density": 71.0}}, {"type": "Feature", "geometry": {"type": "Point", "coordinates": [-121.5836, 39.1518]}, "properties": {"city": "Marysville", "population": 12413.0, "density": 1383.0}}, {"type": "Feature", "geometry": {"type": "Point", "coordinates": [-121.444, 37.726]}, "properties": {"city": "Tracy", "population": 95982.0, "density": 1584.0}}, {"type": "Feature", "geometry": {"type": "Point", "coordinates": [-121.9781, 38.532]}, "properties": {"city": "Winters", "population": 7775.0, "density": 956.0}}, {"type": "Feature", "geometry": {"type": "Point", "coordinates": [-118.042, 34.009]}, "properties": {"city": "Rose Hills", "population": 2817.0, "density": 2524.0}}, {"type": "Feature", "geometry": {"type": "Point", "coordinates": [-118.475, 35.127]}, "properties": {"city": "Tehachapi", "population": 14491.0, "density": 493.0}}, {"type": "Feature", "geometry": {"type": "Point", "coordinates": [-120.5447, 39.7771]}, "properties": {"city": "Mabie", "population": 43.0, "density": 4.0}}, {"type": "Feature", "geometry": {"type": "Point", "coordinates": [-117.9887, 33.9244]}, "properties": {"city": "East Whittier", "population": 10540.0, "density": 3731.0}}, {"type": "Feature", "geometry": {"type": "Point", "coordinates": [-118.2447, 33.9682]}, "properties": {"city": "Florence-Graham", "population": 63821.0, "density": 7021.0}}, {"type": "Feature", "geometry": {"type": "Point", "coordinates": [-118.0594, 33.7972]}, "properties": {"city": "Los Alamitos", "population": 11603.0, "density": 1113.0}}, {"type": "Feature", "geometry": {"type": "Point", "coordinates": [-123.4917, 40.4325]}, "properties": {"city": "Mad River", "population": 482.0, "density": 5.0}}, {"type": "Feature", "geometry": {"type": "Point", "coordinates": [-121.9702, 38.675]}, "properties": {"city": "Madison", "population": 727.0, "density": 181.0}}, {"type": "Feature", "geometry": {"type": "Point", "coordinates": [-121.087, 37.7145]}, "properties": {"city": "Salida", "population": 14424.0, "density": 1052.0}}, {"type": "Feature", "geometry": {"type": "Point", "coordinates": [-119.2202, 36.3886]}, "properties": {"city": "Ivanhoe", "population": 3804.0, "density": 729.0}}, {"type": "Feature", "geometry": {"type": "Point", "coordinates": [-122.268, 37.4982]}, "properties": {"city": "San Carlos", "population": 30499.0, "density": 2135.0}}, {"type": "Feature", "geometry": {"type": "Point", "coordinates": [-119.3671, 35.5938]}, "properties": {"city": "Wasco", "population": 26935.0, "density": 1110.0}}, {"type": "Feature", "geometry": {"type": "Point", "coordinates": [-121.6078, 39.8228]}, "properties": {"city": "Magalia", "population": 12346.0, "density": 340.0}}, {"type": "Feature", "geometry": {"type": "Point", "coordinates": [-122.3711, 37.9642]}, "properties": {"city": "North Richmond", "population": 3738.0, "density": 1038.0}}, {"type": "Feature", "geometry": {"type": "Point", "coordinates": [-121.5515, 40.9213]}, "properties": {"city": "Cassel", "population": 350.0, "density": 66.0}}, {"type": "Feature", "geometry": {"type": "Point", "coordinates": [-117.3147, 34.3975]}, "properties": {"city": "Hesperia", "population": 94859.0, "density": 503.0}}, {"type": "Feature", "geometry": {"type": "Point", "coordinates": [-119.3576, 35.2987]}, "properties": {"city": "Tupman", "population": 159.0, "density": 116.0}}, {"type": "Feature", "geometry": {"type": "Point", "coordinates": [-121.1575, 40.206]}, "properties": {"city": "Prattville", "population": 16.0, "density": 10.0}}, {"type": "Feature", "geometry": {"type": "Point", "coordinates": [-119.637, 36.303]}, "properties": {"city": "Home Garden", "population": 1881.0, "density": 1634.0}}, {"type": "Feature", "geometry": {"type": "Point", "coordinates": [-122.0481, 37.6761]}, "properties": {"city": "Fairview", "population": 10222.0, "density": 1434.0}}, {"type": "Feature", "geometry": {"type": "Point", "coordinates": [-121.3188, 39.9239]}, "properties": {"city": "Storrie", "population": 0.0, "density": 0.0}}, {"type": "Feature", "geometry": {"type": "Point", "coordinates": [-117.3863, 35.89]}, "properties": {"city": "Homewood Canyon", "population": 27.0, "density": 1.0}}, {"type": "Feature", "geometry": {"type": "Point", "coordinates": [-121.1762, 40.2146]}, "properties": {"city": "Almanor", "population": 0.0, "density": 0.0}}, {"type": "Feature", "geometry": {"type": "Point", "coordinates": [-117.1743, 33.135]}, "properties": {"city": "San Marcos", "population": 96198.0, "density": 1524.0}}, {"type": "Feature", "geometry": {"type": "Point", "coordinates": [-118.4021, 33.9169]}, "properties": {"city": "El Segundo", "population": 16853.0, "density": 1191.0}}, {"type": "Feature", "geometry": {"type": "Point", "coordinates": [-118.6363, 35.8114]}, "properties": {"city": "Poso Park", "population": 6.0, "density": 53.0}}, {"type": "Feature", "geometry": {"type": "Point", "coordinates": [-120.9088, 37.5618]}, "properties": {"city": "Keyes", "population": 6237.0, "density": 855.0}}, {"type": "Feature", "geometry": {"type": "Point", "coordinates": [-121.5694, 40.3755]}, "properties": {"city": "Mineral", "population": 310.0, "density": 2.0}}, {"type": "Feature", "geometry": {"type": "Point", "coordinates": [-118.0406, 33.8504]}, "properties": {"city": "La Palma", "population": 15722.0, "density": 3403.0}}, {"type": "Feature", "geometry": {"type": "Point", "coordinates": [-119.2731, 34.4505]}, "properties": {"city": "Meiners Oaks", "population": 3182.0, "density": 872.0}}, {"type": "Feature", "geometry": {"type": "Point", "coordinates": [-122.4811, 37.6914]}, "properties": {"city": "Broadmoor", "population": 5112.0, "density": 4378.0}}, {"type": "Feature", "geometry": {"type": "Point", "coordinates": [-117.5891, 36.2688]}, "properties": {"city": "Darwin", "population": 34.0, "density": 9.0}}, {"type": "Feature", "geometry": {"type": "Point", "coordinates": [-121.1781, 40.893]}, "properties": {"city": "Little Valley", "population": 26.0, "density": 24.0}}, {"type": "Feature", "geometry": {"type": "Point", "coordinates": [-123.9209, 40.3226]}, "properties": {"city": "Weott", "population": 307.0, "density": 157.0}}, {"type": "Feature", "geometry": {"type": "Point", "coordinates": [-121.2625, 37.9796]}, "properties": {"city": "August", "population": 7942.0, "density": 2455.0}}, {"type": "Feature", "geometry": {"type": "Point", "coordinates": [-119.6739, 36.6246]}, "properties": {"city": "Fowler", "population": 6495.0, "density": 995.0}}, {"type": "Feature", "geometry": {"type": "Point", "coordinates": [-122.3671, 38.3963]}, "properties": {"city": "Yountville", "population": 2924.0, "density": 758.0}}, {"type": "Feature", "geometry": {"type": "Point", "coordinates": [-123.3494, 39.4047]}, "properties": {"city": "Willits", "population": 8031.0, "density": 668.0}}, {"type": "Feature", "geometry": {"type": "Point", "coordinates": [-116.895, 34.2429]}, "properties": {"city": "Big Bear Lake", "population": 5262.0, "density": 325.0}}, {"type": "Feature", "geometry": {"type": "Point", "coordinates": [-121.9301, 37.9403]}, "properties": {"city": "Clayton", "population": 12150.0, "density": 1221.0}}, {"type": "Feature", "geometry": {"type": "Point", "coordinates": [-119.0322, 34.223]}, "properties": {"city": "Camarillo", "population": 74682.0, "density": 1331.0}}, {"type": "Feature", "geometry": {"type": "Point", "coordinates": [-118.0096, 34.1159]}, "properties": {"city": "Mayflower Village", "population": 5828.0, "density": 3265.0}}, {"type": "Feature", "geometry": {"type": "Point", "coordinates": [-118.7999, 34.4075]}, "properties": {"city": "Piru", "population": 1808.0, "density": 248.0}}, {"type": "Feature", "geometry": {"type": "Point", "coordinates": [-120.9179, 38.2974]}, "properties": {"city": "Buena Vista", "population": 436.0, "density": 103.0}}, {"type": "Feature", "geometry": {"type": "Point", "coordinates": [-122.0263, 37.2684]}, "properties": {"city": "Saratoga", "population": 30905.0, "density": 934.0}}, {"type": "Feature", "geometry": {"type": "Point", "coordinates": [-122.9712, 38.3488]}, "properties": {"city": "Bodega", "population": 384.0, "density": 51.0}}, {"type": "Feature", "geometry": {"type": "Point", "coordinates": [-117.0027, 32.711]}, "properties": {"city": "La Presa", "population": 36225.0, "density": 2544.0}}, {"type": "Feature", "geometry": {"type": "Point", "coordinates": [-119.2231, 34.1586]}, "properties": {"city": "Channel Islands Beach", "population": 2659.0, "density": 2539.0}}, {"type": "Feature", "geometry": {"type": "Point", "coordinates": [-118.3693, 33.9168]}, "properties": {"city": "Del Aire", "population": 10614.0, "density": 4049.0}}, {"type": "Feature", "geometry": {"type": "Point", "coordinates": [-119.3245, 37.0971]}, "properties": {"city": "Shaver Lake", "population": 552.0, "density": 6.0}}, {"type": "Feature", "geometry": {"type": "Point", "coordinates": [-122.6457, 37.9051]}, "properties": {"city": "Stinson Beach", "population": 596.0, "density": 159.0}}, {"type": "Feature", "geometry": {"type": "Point", "coordinates": [-119.1819, 34.1962]}, "properties": {"city": "Oxnard", "population": 389792.0, "density": 3008.0}}, {"type": "Feature", "geometry": {"type": "Point", "coordinates": [-120.815, 38.1837]}, "properties": {"city": "Valley Springs", "population": 3321.0, "density": 129.0}}, {"type": "Feature", "geometry": {"type": "Point", "coordinates": [-120.6689, 35.267]}, "properties": {"city": "San Luis Obispo", "population": 62398.0, "density": 1397.0}},